,station_id,station_name,latitude,longitude,num_of_entries,num_of_exits,num_of_platforms,city_name
0,1,Digne-les-Bains,44.35,6.35,1,1,4,Seyne
1,2,La Crau,43.1449352,6.0687663,1,1,3,La Crau
2,3,St-Sever Calvados,48.833333,-1.033333,2,3,4,Noues de Sienne
3,4,St-Sever Centre,48.839517,-1.049283,2,3,3,Noues de Sienne
4,5,Vire,48.83897,-0.88928,1,3,3,Vire Normandie
5,6,Vire Centre,48.837638,-0.880538,1,3,2,Vire Normandie
6,7,Dijon Ville,47.32337,5.027208,1,3,3,Dijon
7,8,Besancon Viotte,47.247019,6.022003,1,3,3,Besançon
8,9,Reze,47.2,-1.566667,2,1,2,Nantes
9,10,Cherbourg,49.633505,-1.621515,1,3,2,Cherbourg-en-Cotentin
10,11,Angers St-Laud,47.464647,-0.55682,2,3,4,Angers
11,12,Reims,49.25,4.033333,1,3,3,Reims
12,13,Reims Maison Blanche,49.2336853,4.0224927,3,3,4,Reims
13,14,Reims Ville,49.258978,4.024435,3,2,3,Reims
14,15,Metz,49.109545,6.176593,3,3,2,Metz
15,16,Dunkerque,51.03047,2.368961,2,1,2,Dunkerque
16,17,Lille-Flandres,50.636577,3.06987,1,3,2,Lille
17,18,Croix-l'Allumette,50.6872009,3.1516591,1,3,4,Roubaix
18,19,Roubaix,50.69561,3.16348,3,2,3,Roubaix
19,20,Bellegarde-sur-Valserine,46.107874,5.824213,2,3,2,Valserhône
20,21,Bellegarde-sur-Valserine Lycee Musinens,46.115336,5.794132,2,3,2,Valserhône
21,22,Calais Ville,50.952613,1.848185,2,1,4,Calais
22,23,Strasbourg,48.584967,7.734584,3,1,2,Strasbourg
23,24,Mulhouse,47.742224,7.342396,2,3,2,Mulhouse
24,25,Aspach-le-Haut,47.769396,7.142379,2,1,4,Aspach-Michelbach
25,26,Avignon Centre,43.9419,4.805281,2,3,2,Avignon
26,27,Le Mans,47.995034,0.19014,1,3,3,Le Mans
27,28,Joue-les-Tours Berthelot,47.35,0.666667,3,3,3,Joué-lès-Tours
28,29,Le Havre,49.492996,0.125677,3,1,3,Le Havre
29,30,Harfleur,49.506596,0.198269,2,1,3,Harfleur
30,31,Harfleur-Halte,49.5059181,0.192085,3,3,4,Harfleur
31,32,Orleans Centre,47.90796,1.904666,1,2,4,Orléans
32,33,Acheux-Franleu,50.0826021,1.6574207,3,2,3,Chépy
33,34,St-Hilaire-de-Riez,46.7166736,-1.9496838,2,2,2,Saint-Hilaire-de-Riez
34,35,St-Hilaire-de-Riez Centre,46.718728,-1.944618,3,3,2,Saint-Hilaire-de-Riez
35,36,Tours,47.389781,0.693703,1,1,3,Tours
36,37,Limoges Benedictins,45.836089,1.267356,3,1,3,Limoges
37,38,Salvagnac,43.916667,1.7,2,3,2,Lisle-sur-Tarn
38,39,Aix-en-Provence TGV,43.455237,5.317534,2,2,4,Aix-en-Provence
39,40,Aillevillers,47.9138876,6.3372988,2,1,3,Aillevillers-et-Lyaumont
40,41,Vicq-sur-Breuilh,45.645578,1.384455,2,1,3,Vicq-sur-Breuilh
41,42,Amberieu,45.954008,5.342388,2,2,4,Ambérieu-en-Bugey
42,43,Magnac Bourg,45.61815,1.43097,1,1,2,Vicq-sur-Breuilh
43,44,Rosoy-sur-Amance,47.833333,5.533333,1,1,3,Haute-Amance
44,45,Angers,47.466667,-0.55,3,1,3,Angers
45,46,Angers Maitre Ecole,47.4670899,-0.531894,2,2,2,Angers
46,47,Blondefontaine,47.883333,5.866667,2,3,4,Enfonvelle
47,48,Champigneulles,48.73499,6.16913,1,3,4,Champigneulles
48,49,Moyen,48.483333,6.566667,2,2,4,Moyen
49,50,Magnieres,48.45,6.566667,1,1,3,Magnières
50,51,Bertrichamps,48.4283359,6.7912343,2,1,3,Bertrichamps
51,52,Thiaville,48.4139874,6.8102635,2,3,2,Thiaville-sur-Meurthe
52,53,Diarville,48.3975653,6.1264922,1,2,4,Diarville
53,54,Luzy-sur-Marne,48.05,5.183333,3,3,3,Verbiesles
54,55,Chaudenay,47.833333,5.5,3,1,3,Haute-Amance
55,56,Hortes,47.838739,5.553454,1,1,4,Haute-Amance
56,57,Froncles,48.2964154,5.1419387,2,2,3,Froncles
57,58,Avignon TGV,43.921586,4.786079,2,3,2,Avignon
58,59,Avignon,43.95,4.816667,2,1,4,Avignon
59,60,Prauthoy,47.666667,5.283333,3,2,2,Le Montsaugeonnais
60,61,Vaux-sous-Aubigny,47.657894,5.291365,3,2,4,Le Montsaugeonnais
61,62,Corgirnon,47.8,5.5,3,3,4,Champsevraine
62,63,Rougeux,47.816667,5.583333,2,3,4,Haute-Amance
63,64,Corcieux-Vanemont,48.1982842,6.8772915,3,1,3,La Houssière
64,65,Provencheres-sur-Fave,48.3046291,7.0854904,1,3,4,Provenchères-et-Colroy
65,66,Colroy-Lubine,48.3145855,7.1317294,3,2,2,Provenchères-et-Colroy
66,67,Pouxeux,48.1039421,6.5810266,3,1,3,Pouxeux
67,68,Eloyes,48.087067,6.6001593,2,3,3,Éloyes
68,69,Bussang,47.883333,6.85,2,1,2,Bussang
69,70,Cornimont,47.966667,6.833333,3,2,3,Cornimont
70,71,Bagnoles-de-l'Orne Office de Tourisme,48.55437,-0.410609,2,3,2,Bagnoles-de-l'Orne-Normandie
71,72,Vallois,48.468442,6.564112,2,2,3,Moyen
72,73,Goussaincourt,48.48384912581334,5.693310499191284,2,1,2,Goussaincourt
73,74,Bazoches,49.30518,3.6163588,2,1,3,Bazoches-et-Saint-Thibaut
74,75,Ay,49.0487318,4.0015644,3,1,4,Aÿ-Champagne
75,76,Guignicourt,49.434862,3.961334,3,3,2,Villeneuve-sur-Aisne
76,77,Brest,48.38811,-4.478903,2,2,4,Brest
77,78,Hasenrain,47.736281,7.3313559,1,2,4,Mulhouse
78,79,Brunstatt,47.716667,7.316667,2,1,3,Brunstatt-Didenheim
79,80,St-Andre (Haut Rhin),47.79097,7.155053,1,3,4,Aspach-Michelbach
80,81,Mulhouse-Dornach,47.74713,7.308477,1,2,3,Mulhouse
81,82,Bartenheim,47.6349313,7.4872561,1,2,3,Bartenheim
82,83,Masevaux,47.776713,6.996832,1,1,3,Masevaux-Niederbruck
83,84,Niederbruck,47.783333,6.966667,2,2,2,Masevaux-Niederbruck
84,85,Trois-Chenes,47.6480822,6.8462281,2,2,3,Belfort
85,86,Petit-Croix,47.6101045,6.9947414,3,2,4,Montreux-Château
86,87,Luxeuil-les-Bains,47.8148606,6.3726593,1,1,3,Luxeuil-les-Bains
87,88,Bordeaux,44.83773065393117,-0.577431321144104,1,2,2,Bordeaux
88,89,Bordeaux St-Jean,44.825873,-0.556697,1,1,3,Bordeaux
89,90,Belfort-Ville,47.633284,6.853956,3,1,2,Belfort
90,91,Ancy-sur-Moselle,49.0575093,6.0627661,1,2,4,Ancy-Dornot
91,92,Mundolsheim,48.6447732,7.721389,2,3,2,Mundolsheim
92,93,Stephansfeld,48.7175872,7.7045946,2,2,3,Brumath
93,94,Brumath,48.7331082,7.7004016,2,1,2,Brumath
94,95,Hochfelden,48.7554199,7.572355,3,1,3,Hochfelden
95,96,Strasbourg Roethig,48.5632897,7.6950455,3,1,3,Strasbourg
96,97,Fegersheim-Lipsheim,48.4905892,7.6724806,2,3,4,Lipsheim
97,98,Rountzenheim,48.820435,8.0119078,2,2,2,Rountzenheim-Auenheim
98,99,Uberach,48.8491,7.631374,1,3,3,Val-de-Moder
99,100,Pfaffenhoffen,48.85,7.616667,3,3,3,Val-de-Moder
100,101,Tauxigny,47.251986,0.840095,1,2,3,Tauxigny-Saint-Bauld
101,102,Niedermodern,48.84345200561577,7.614008188247681,1,2,4,Val-de-Moder
102,103,Holtzheim,48.555688,7.6630912,1,1,3,Holtzheim
103,104,Mutzig,48.5337753,7.4621581,2,3,2,Mutzig
104,105,Lutzelhouse,48.51812,7.29391,3,3,4,Muhlbach-sur-Bruche
105,106,Wisches,48.5076495,7.2700936,2,1,2,Wisches
106,107,Russ-Hersbach,48.4982211,7.2519246,2,1,4,Wisches
107,108,Schirmeck-La Broque,48.47973,7.21594,2,1,2,Schirmeck
108,109,Rothau,48.4590026,7.2074902,1,2,4,Rothau
109,110,Saulxures,48.3895555,7.1478548,2,3,4,Bourg-Bruche
110,111,Bourg-Bruche,48.3598566,7.1371919,3,2,4,Bourg-Bruche
111,112,Saales,48.3471556,7.1103726,2,1,3,Saales
112,113,Chateau-du-Loir,47.683392,0.414912,2,1,4,Montval-sur-Loir
113,114,Vaumoise,49.2339406,2.9885685,2,3,3,Coyolles
114,115,Cannes,43.55,7.016667,3,2,3,Cannes
115,116,Cannes-La Bocca,43.548787,6.986601,1,1,3,Cannes
116,117,Clermont-Ferrand,45.778945,3.100543,3,3,3,Clermont-Ferrand
117,118,Caen,49.176354,-0.347613,2,1,4,Caen
118,119,Noyon,49.57736,3.00641,1,2,3,Noyon
119,120,Gravelines,50.978736,2.1232852,2,1,2,Gravelines
120,121,Hellemmes,50.6226402,3.1149328,1,2,3,Lille
121,122,Rosult,50.4563667,3.3490115,2,1,3,Rosult
122,123,Landas,50.4687775,3.290568,1,3,2,Landas
123,124,Cysoing,50.5620393,3.2098913,1,1,3,Cysoing
124,125,Baisieux,50.61845,3.2347796,3,1,3,Baisieux
125,126,Lezennes,50.6205699,3.0986481,2,1,3,Lille
126,127,Mont-de-Terre,50.6176672,3.0966031,2,2,2,Lille
127,128,Bouvines,50.5737864,3.2021971,2,1,3,Cysoing
128,129,Lille Porte de Douai,50.6119054,3.075837,3,1,3,Lille
129,130,Ennevelin,50.5492981,3.1586612,2,2,2,Ennevelin
130,131,Chambery Challes-les-Eaux,45.571302,5.919547,3,1,4,Chambéry
131,132,Cognac,45.684682,-0.326112,1,3,3,Cognac
132,133,Calais,50.95345262552378,1.850595474243164,3,1,2,Calais
133,134,Hargicourt-Pierrepont,49.7138593,2.5317673,1,2,4,Trois-Rivières
134,135,Rosieres (Somme),49.82253,2.71141,3,1,4,Rosières-en-Santerre
135,136,Ham,49.73985,3.07052,1,3,3,Muille-Villette
136,137,Marchelepot,49.833333,2.866667,2,3,2,Marchélepot-Misery
137,138,Hyencourt-le-Grand,49.816667,2.833333,2,3,4,Hypercourt
138,139,Culoz,45.843264,5.778784,3,2,3,Culoz
139,140,Ste-Segree,49.75,1.916667,1,3,4,Sainte-Segrée
140,141,Clermont-Ferrand la Pardieu,45.766947,3.134163,1,3,4,Clermont-Ferrand
141,142,Clermont-Ferrand la Rotonde,45.7680954,3.0909704,1,3,2,Clermont-Ferrand
142,143,Chepy-Valines,50.0682219,1.6358275,3,2,3,Chépy
143,144,Beau-Marais,50.945371,1.8983301,2,3,2,Calais
144,145,Escaudoeuvres,50.1918249,3.2754949,2,2,4,Escaudœuvres
145,146,Cattenieres,50.1280738,3.3337877,1,2,2,Cattenières
146,147,Wambaix,50.1338767,3.3114074,2,2,2,Wambaix
147,148,Chateau-du-Loir Hotel de Ville,47.7,0.416667,1,2,2,Montval-sur-Loir
148,149,Dijon,47.32337785274246,5.027124881744385,3,3,3,Dijon
149,150,Dijon Porte Neuve,47.322806,5.054872,2,1,4,Dijon
150,151,Conde-sur-Huisne,48.3834826,0.8487023,1,1,4,Sablons sur Huisne
151,152,Teille,48.1812341,0.1913397,2,3,3,Ballon-Saint Mars
152,153,Vivoin-Beaumont,48.2302093,0.1447829,3,3,2,Vivoin
153,154,Le Theil-La Rouge,48.2672964,0.6944581,3,1,3,Val-au-Perche
154,155,Buzy-Darmont,49.166667,5.7,1,1,4,Buzy-Darmont
155,156,Pavilly,49.563897,0.950644,1,1,4,Pavilly
156,157,St-Laurent-Gainneville,49.5285649,0.2522963,2,2,4,Saint-Laurent-de-Brèvedent
157,158,Virville-Manneville,49.5835958,0.3541609,3,1,3,Saint-Gilles-de-la-Neuville
158,159,Foucart-Alvimare,49.608289,0.5969601,1,3,2,Cléville
159,160,Auffay,49.716044,1.098441,1,2,4,Val-de-Scie
160,161,Bourgtheroulde-Thuit-Hebert,49.3174381,0.8383198,3,2,2,Grand Bourgtheroulde
161,162,Gaillon-Aubevoye,49.174626,1.352461,3,1,2,Le Val d'Hazey
162,163,Audrieu,49.2161315,-0.5960138,1,3,2,Audrieu
163,164,Moult-Argences,49.1111851,-0.1864355,2,2,4,Moult-Chicheboville
164,165,St-Pierre-sur-Dives,49.0231057,-0.0405855,3,3,3,Saint-Pierre-en-Auge
165,166,Ecouche,48.7151009,-0.1209574,3,1,3,Écouché-les-Vallées
166,167,Carentan,49.302482,-1.244938,1,1,4,Carentan-les-Marais
167,168,Orval-Hyenville,49.016667,-1.466667,1,1,3,Orval-sur-Sienne
168,169,Villedieu-les-Poeles,48.8340495,-1.225559,1,3,4,Villedieu-les-Poêles-Rouffigny
169,170,Mesnil-Clinchamps,48.85,-0.983333,3,1,4,Noues de Sienne
170,171,Fromentel,48.71,-0.270521,2,3,2,Putanges-le-Lac
171,172,Messac-Guipry,47.82225,-1.81822,3,3,4,Guipry-Messac
172,173,Pontchaillou,48.11918,-1.69107,2,2,2,Rennes
173,174,Plenee-Jugon,48.376656,-2.3546108,2,3,4,Jugon-les-Lacs Commune nouvelle
174,175,Chatelaudren-Plouagat,48.5332189,-2.9746782,3,2,3,Châtelaudren-Plouagat
175,176,Ploeuc-L'Hermitage,48.327545,-2.825875,1,2,2,Plœuc-L'Hermitage
176,177,Tregonneau-Squiffiec,48.6243578,-3.1742524,3,3,2,Squiffiec
177,178,Meuse TGV,48.978549,5.270954,1,3,2,Les Trois-Domaines
178,179,Pont-de-Buis,48.2544024,-4.0861227,1,2,4,Pont-de-Buis-lès-Quimerch
179,180,St-Thegonnec,48.4942082,-3.9483116,3,3,3,Saint-Thégonnec Loc-Eguiner
180,181,St-Etienne,45.44348229750384,4.399509429931641,1,1,3,Saint-Étienne
181,182,St-Etienne Bellevue,45.417128,4.392734,3,1,2,Saint-Étienne
182,183,St-Etienne le Clapier,45.4371122,4.3782267,3,1,2,Saint-Étienne
183,184,St-Etienne la Terrasse,45.464843,4.379601,2,3,3,Saint-Étienne
184,185,St-Etienne Chateaucreux,45.443366,4.399722,3,3,2,Saint-Étienne
185,186,St-Etienne Carnot,45.446976,4.385317,3,2,4,Saint-Étienne
186,187,Hennebont,47.7990019,-3.2857467,1,1,4,Hennebont
187,188,St-Gerand,48.1,-2.883333,1,3,2,Saint-Gérand-Croixanvec
188,189,Ste-Anne-d'Auray,47.6785805,-2.96048,3,1,3,Pluneret
189,190,Port-Brillet,48.1106724,-0.9740682,1,2,2,Port-Brillet
190,191,Bourgneuf-en-Retz Ecole,47.04216,-1.94913,3,2,3,Villeneuve-en-Retz
191,192,Chantenay,47.1971227,-1.5943634,1,2,4,Nantes
192,193,Ancenis,47.369334,-1.177763,3,2,3,Ancenis-Saint-Géréon
193,194,Bourgneuf-en-Retz,47.0469634,-1.9551942,1,3,4,Villeneuve-en-Retz
194,195,Machecoul,46.9905038,-1.8227524,1,2,2,Machecoul-Saint-Même
195,196,Montaigu,46.983705,-1.316236,2,2,3,Montaigu-Vendée
196,197,Morannes,47.7390902,-0.4179693,1,2,4,Morannes sur Sarthe-Daumeray
197,198,Chemille,47.217748,-0.731989,2,3,4,Chemillé-en-Anjou
198,199,Varades-St-Florent-le-Vieil,47.3744471,-1.019712,1,1,4,Loireauxence
199,200,Segre,47.7,-0.45,2,1,4,Les Hauts-d'Anjou
200,201,Prisse-la-Charriere,46.15277,-0.4936249,2,2,4,Plaine-d'Argenson
201,202,L'Herbergement-Les-Brouzils,46.9069172,-1.3712431,3,2,2,L'Herbergement
202,203,Belleville-sur-Vie,46.788316,-1.4346673,2,3,3,Bellevigny
203,204,Versonnex,46.30108001775652,6.095834970474243,1,3,2,Versonnex
204,205,Prevessin Mairie,46.25,6.083333,1,2,3,Prévessin-Moëns
205,206,Les Clouzeaux,46.616667,-1.516667,3,2,2,Aubigny-Les Clouzeaux
206,207,La Mothe-Achard,46.6068648,-1.6596359,1,2,4,Les Achards
207,208,Torfou,47.0331153,-1.1173797,3,3,3,Sèvremoine
208,209,La Bohalle,47.4342356,-0.4000426,1,2,2,Loire-Authion
209,210,Les Rosiers-sur-Loire,47.3625386,-0.2205371,3,1,3,Gennes-Val-de-Loire
210,211,St-Mathurin,47.4122473,-0.3182267,2,3,3,Loire-Authion
211,212,Clion-sur-Seugne,45.4783225,-0.502092,1,3,4,Clion
212,213,Aubie-St-Antoine,45.0151419,-0.4198843,2,3,2,Val de Virvée
213,214,St-Andre-de-Cubzac,44.991255,-0.440479,2,2,2,Saint-André-de-Cubzac
214,215,Nancy,48.689861,6.174583,2,1,4,Nancy
215,216,Jarnac-Charente,45.6711292,-0.1777613,2,2,4,Mainxe-Gondeville
216,217,Voves,48.2750095,1.6222874,1,3,4,Les Villages Vovéens
217,218,Bonneval,48.1862958,1.3861845,2,1,2,Bonneval
218,219,Druye,47.3070191,0.5354805,2,2,4,Druye
219,220,St-Patrice,47.2855394,0.3096916,3,2,2,Coteaux-sur-Loire
220,221,Chouzy,47.5203249,1.247846,3,2,2,Valloire-sur-Cisse
221,222,Onzain - Chaumont-sur-Loire,47.492,1.18595,3,1,4,Veuzain-sur-Loire
222,223,Veuves-Monteaux,47.4756722,1.1238749,3,2,2,Veuzain-sur-Loire
223,224,Montrichard,47.3437658,1.1717596,3,3,4,Montrichard Val de Cher
224,225,Port-de-Piles,47.0102599,0.5989179,2,2,2,La Celle-Saint-Avant
225,226,La Tricherie,46.7288206,0.4412021,3,1,4,Beaumont Saint-Cyr
226,227,Lathus,46.3380917,0.965009,1,1,2,Lathus-Saint-Rémy
227,228,Varennes-sur-Fouzon,47.2144095,1.6145221,2,3,3,Val-Fouzon
228,229,Margaux,45.0358307,-0.6854145,3,3,4,Margaux-Cantenac
229,230,Facture-Biganos,44.637384,-0.96621,1,1,2,Biganos
230,231,Cauderan-Merignac,44.84288,-0.6274337,1,2,4,Bordeaux
231,232,Croix-d'Hins,44.71010043360508,-0.814812183380127,2,3,4,Marcheprime
232,233,Marcheprime,44.690543,-0.85381,1,2,2,Marcheprime
233,234,Le Teich,44.632507,-1.025556,2,3,4,Le Teich
234,235,Gujan-Mestras,44.640454,-1.06906,3,3,4,Gujan-Mestras
235,236,La Hume,44.639879,-1.116,1,1,2,Gujan-Mestras
236,237,La Rochefoucauld,45.7401921,0.3895946,2,3,3,La Rochefoucauld-en-Angoumois
237,238,Roumazieres-Loubert,45.8893483,0.5789743,1,2,3,Terres-de-Haute-Charente
238,239,Vellexon,47.56375,5.803004,3,1,2,Vellexon-Queutrey-et-Vaudey
239,240,Montmoreau,45.3982987,0.1380013,1,2,3,Montmoreau
240,241,Mauzac,44.8558291,0.7899658,3,1,4,Mauzac-et-Grand-Castang
241,242,Sauveterre-la-Lemance,44.5893893,1.0115419,3,3,4,Sauveterre-la-Lémance
242,243,Limoges Montjovis,45.8384117,1.2514147,3,3,3,Limoges
243,244,Magnac-Vicq,45.6288007,1.4438445,1,3,2,Vicq-sur-Breuilh
244,245,Montaignac-St-Hippolyte,45.3546898,1.9797531,2,3,3,Montaignac-sur-Doustre
245,246,Vereux,47.521276,5.645926,3,1,4,Montureux-et-Prantigny
246,247,Gignac-Cressensac,45.0146074,1.4831648,3,3,4,Cressensac-Sarrazac
247,248,Les Quatre-Routes-du-Lot,44.9974864,1.6439067,2,3,3,Le Vignon-en-Quercy
248,249,Montpon-Menesterol,45.006326,0.159328,3,3,2,Montpon-Ménestérol
249,250,Milhac-d'Auberoche,45.1290571,0.9180406,1,2,2,Bassillac et Auberoche
250,251,Les Eyzies,44.9411916,1.0081942,1,2,4,Les Eyzies
251,252,St-Cyprien-en-Dordogne,44.8632733,1.0434666,1,1,2,Castels et Bézenac
252,253,Belves,44.7773978,1.0118831,1,2,2,Pays de Belvès
253,254,Nimes Centre,43.832291,4.365845,1,1,4,Nîmes
254,255,Ste-Anastasie,45.166667,2.983333,2,3,2,Neussargues en Pinatelle
255,256,Parsac-Gouzon,46.1986154,2.1744416,2,3,3,Parsac-Rimondeix
256,257,Loures-Barbazan,43.021075,0.6104494,3,3,4,Loures-Barousse
257,258,Anos,43.4,-0.283333,3,1,2,Barinque
258,259,Venerque-Le-Vernet,43.433361,1.426079,3,3,3,Vernet
259,260,Lacourtensourt,43.6638838,1.4138687,1,2,2,Toulouse
260,261,Porta,42.514932,1.824639,3,3,2,Porta
261,262,Porte-Puymorens,42.539136,1.8248462,2,3,3,Porta
262,263,L'Hospitalet-pres-l'Andorre,42.5894535,1.8002635,1,3,2,L'Hospitalet-près-l'Andorre
263,264,Ussat-les-Bains,42.821922,1.62,3,1,4,Ornolac-Ussat-les-Bains
264,265,L'Isle-Jourdain,43.617185,1.089829,3,2,4,L'Isle-Jourdain
265,266,Merenvielle,43.6365051,1.1503303,2,3,3,Lasserre-Pradère
266,267,Frouard,48.75545,6.14411,1,3,2,Frouard
267,268,Lardenne,43.5966262,1.3839252,1,2,2,Toulouse
268,269,Lalande Eglise,43.6459862,1.4286153,2,1,4,Toulouse
269,270,Route-de-Launaguet,43.6354791,1.439154,1,1,3,Toulouse
270,271,Montaudran,43.5734591,1.4804356,2,2,3,Toulouse
271,272,Vers,44.484963,1.550477,1,3,4,Saint-Géry-Vers
272,273,St-Gery,44.483333,1.583333,2,2,4,Saint-Géry-Vers
273,274,Lisle-sur-Tarn,43.85639,1.80823,1,2,3,Lisle-sur-Tarn
274,275,Lacabarede,43.45,2.583333,2,2,2,Lacabarède
275,276,Baraqueville-Carcenac-Peyrales,44.2704368,2.4275453,2,3,3,Baraqueville
276,277,Villenouvelle,43.4330358,1.661081,1,3,4,Villenouvelle
277,278,Mazeres-sur-Salat,43.133333,0.966667,1,1,3,Mazères-sur-Salat
278,279,Salies-du-Salat,43.116667,0.95,1,1,4,Montsaunès
279,280,Mane,43.083333,0.95,1,3,2,Mane
280,281,Lorp,43.008915,1.107817,1,3,2,Lorp-Sentaraille
281,282,Laroque-des-Arcs,44.483333,1.466667,1,2,3,Bellefont-La Rauze
282,283,Cauterets,42.89122312551464,-0.1136773824691772,2,2,4,Cauterets
283,284,Les Ancizes-St-Georges,45.932648,2.835314,2,2,3,Les Ancizes-Comps
284,285,La Ville-Gozet,46.3497686,2.5918028,3,3,3,Montluçon
285,286,Maurs,44.7061543,2.1995656,1,3,4,Maurs
286,287,Pers,44.887025,2.2403887,2,3,4,Le Rouget-Pers
287,288,Le Rouget,44.8565391,2.2355043,2,2,4,Le Rouget-Pers
288,289,Geneve Eaux-Vives,46.2007119952184,6.166044473648071,3,2,2,Genève
289,290,Gex Centre,46.33204691423479,6.058391332626343,3,3,3,Gex
290,291,Guilherand-Granges,44.933333,4.866667,3,3,4,Guilherand-Granges
291,292,Lescun,42.933333,-0.633333,1,3,4,Lescun
292,293,Cambo-les-Bains,43.3656242,-1.3966849,2,1,4,Cambo-les-Bains
293,294,Itxassou,43.324043,-1.3956111,3,1,3,Itxassou
294,295,Bidarray-Pont-Noblia,43.2682991,-1.3453233,2,3,4,Bidarray
295,296,Mirande,43.516667,0.416667,2,1,2,Mirande
296,297,Oulmes Centre,46.4,-0.666667,1,3,2,Rives-d'Autise
297,298,Mauvezin,43.73032864962484,0.8781015872955322,1,2,4,Mauvezin
298,299,Grenoble,45.191493,5.714584,1,3,3,Grenoble
299,300,Avree,46.816667,3.866667,3,1,4,Avrée
300,301,Luzy,46.7940793,3.9693245,3,1,3,Luzy
301,302,Millay,46.833333,3.983333,1,3,4,Luzy
302,303,Collonges (Cote d'Or),47.2212533,5.2653478,1,3,3,Collonges-et-Premières
303,304,Metabief,46.783333,6.35,2,3,3,Touillon-et-Loutelet
304,305,St-Laurent-en-Grandvaux,46.5747975,5.9512119,2,1,2,Saint-Laurent-en-Grandvaux
305,306,Morez,46.5262166,6.023578,2,2,2,Hauts de Bienne
306,307,Besancon Mouillere,47.240372,6.03391,3,1,4,Besançon
307,308,Domblans-Voiteur,46.7627809,5.5977462,2,3,3,Domblans
308,309,Lyon Vaise,45.779938,4.80396,3,1,4,Lyon
309,310,Pontcharra-St-Forgeux,45.8714911,4.4927781,2,1,2,Vindry-sur-Turdine
310,311,Bois-d'Oingt Centre,45.913483,4.568614,1,3,2,Val d'Oingt
311,312,Oullins,45.7166261,4.8135793,1,2,3,Oullins
312,313,Miribel,45.822088,4.95394,2,3,4,Miribel
313,314,St-Maurice-de-Beynost,45.827421,4.976986,2,3,3,Saint-Maurice-de-Beynost
314,315,Beynost,45.833915,5.006969,3,2,3,Beynost
315,316,Montluel,45.84777,5.057503,2,1,3,Montluel
316,317,Meximieux-Perouges,45.901615,5.193534,2,1,4,Meximieux
317,318,Les Echets,45.8746675,4.9108215,3,2,2,Miribel
318,319,Mionnay,45.8966784,4.919752,2,2,2,Mionnay
319,320,St-Andre-de-Corcy,45.925911,4.948846,3,3,3,Saint-André-de-Corcy
320,321,St-Marcel-en-Dombes,45.9503701,4.9775148,1,3,4,Saint-Marcel
321,322,Villars-les-Dombes,46.004206,5.028404,1,1,2,Villars-les-Dombes
322,323,Marlieux-Chatillon,46.0638765,5.0731097,3,3,3,Marlieux
323,324,St-Paul-de-Varax,46.1000331,5.1282046,1,2,2,Saint-Paul-de-Varax
324,325,Servas-Lent,46.1306663,5.1681312,3,2,3,Servas
325,326,Pont-de-Veyle,46.2679114,4.8930347,3,1,4,Crottet
326,327,Vonnas,46.2272852,4.9916677,3,1,2,Vonnas
327,328,Mezeriat,46.2350502,5.046622,1,1,3,Mézériat
328,329,Polliat,46.24464,5.1238268,2,2,4,Polliat
329,330,Boen,45.7413612,4.0051544,3,3,4,Boën-sur-Lignon
330,331,Blagnac Mairie,43.633333,1.4,3,1,4,Blagnac
331,332,His,43.066667,0.966667,1,2,3,His
332,333,Montrond-les-Bains,45.644429,4.248814,2,1,2,Montrond-les-Bains
333,334,Nantes Pirmil,47.19620108245616,-1.5426993370056152,3,3,2,Nantes
334,335,Lachaud-Curmilhac,45.1228045,3.6104913,1,1,4,Vissac-Auteyrac
335,336,Pontmort,45.939486,3.1601248,2,2,4,Chambaron sur Morge
336,337,Sarlieve-Cournon,45.7387697,3.1681196,1,2,4,Cournon-d'Auvergne
337,338,Issoire,45.543884,3.25398,3,1,4,Issoire
338,339,Luc,44.654092,3.8915631,3,1,2,Luc
339,340,La Roche-sur-Yon Place de Vendee,46.666667,-1.433333,1,1,3,La Roche-sur-Yon
340,341,Lavoute-sur-Loire,45.1214503,3.9054101,3,3,2,Lavoûte-sur-Loire
341,342,Vorey,45.1829093,3.911422,2,3,4,Vorey
342,343,Le Mans Pontlieue,48.0,0.2,2,1,4,Le Mans
343,344,Le Mans Viaduc,48.0,0.2,1,3,3,Le Mans
344,345,Muse,47.74873112290638,7.297512888908385,1,1,4,Mulhouse
345,346,Le Mans Boulevard Lefaucheux,48.0,0.2,3,2,2,Le Mans
346,347,Chanoy,47.916667,5.283333,3,1,4,Chanoy
347,348,Pont-de-Beauvoisin,45.524636,5.680772,1,3,2,Le Pont-de-Beauvoisin
348,349,Les Abrets-Fitilieu,45.5421091,5.5754876,3,2,3,Les Abrets en Dauphiné
349,350,Virieu-le-Grand-Belley,45.8482817,5.6536162,1,2,2,Virieu-le-Grand
350,351,Notre-Dame-de-Briancon,45.5393185,6.4687785,2,3,2,La Léchère
351,352,Petit-Coeur-La Lechere,45.520888,6.484647,2,2,3,La Léchère
352,353,Collonges (Ain),46.133333,5.9,3,2,4,Collonges
353,354,Longeray,46.1169,5.882954,3,3,4,Léaz
354,355,Val-Thoiry,46.226981885654304,5.9925806522369385,2,2,2,Thoiry
355,356,La Vavrette-Tossiat,46.132865,5.287526,1,1,3,Tossiat
356,357,St-Martin-du-Mont,46.095871,5.303003,2,3,4,Saint-Martin-du-Mont
357,358,Pont-d'Ain,46.053961,5.3343285,1,2,2,Pont-d'Ain
358,359,Ambronay-Priay,46.0115941,5.3382579,2,3,2,Ambronay
359,360,St-Etienne-du-Bois,46.283333,5.283333,3,3,4,Saint-Étienne-du-Bois
360,361,Le Moulin-des-Ponts,46.32951701535258,5.313724279403687,2,1,4,Villemotier
361,362,Coligny,46.383333,5.35,3,3,4,Coligny
362,363,Ceyzeriat,46.1834877,5.3258417,2,2,3,Ceyzériat
363,364,Villereversure,46.1944145,5.3977089,2,1,4,Villereversure
364,365,Simandre-sur-Suran,46.2202097,5.4210929,3,2,4,Simandre-sur-Suran
365,366,Nurieux,46.1842195,5.5327486,3,3,2,Nurieux-Volognat
366,367,Nantua,46.15,5.616667,1,2,4,Nantua
367,368,Les Neyrolles,46.133333,5.633333,1,1,2,Les Neyrolles
368,369,Montreal,46.18438396072092,5.576843619346619,1,1,4,Montréal-la-Cluse
369,370,Martignat,46.216667,5.6,2,2,3,Groissiat
370,371,Bellignat,46.2381265,5.6298849,3,2,3,Bellignat
371,372,Molinges,46.3570706,5.7682135,3,1,2,Chassal-Molinges
372,373,St-Rambert-en-Bugey,45.9473397,5.438622,2,1,2,Saint-Rambert-en-Bugey
373,374,Tenay-Hauteville,45.9222096,5.5016101,1,3,2,Tenay
374,375,Farges,46.166667,5.916667,3,3,4,Farges
375,376,Greny,49.946414932080245,1.3053828477859497,3,2,2,Petit-Caux
376,377,Sous-Peron,46.187879,5.929491,2,1,3,Péron
377,378,St-Jean-de-Gonville,46.216667,5.95,1,3,4,Saint-Jean-de-Gonville
378,379,Chevry,46.283333,6.033333,1,2,3,Chevry
379,380,Echenevex,46.316667,6.033333,1,1,4,Échenevex
380,381,Grilly,46.333333,6.116667,2,1,4,Grilly
381,382,Divonne-les-Bains,46.35352596599179,6.137044429779053,3,2,3,Divonne-les-Bains
382,383,Pougny-Chancy,46.1446674,5.9613614,2,1,4,Pougny
383,384,Machilly,46.2512825,6.3282335,1,1,4,Machilly
384,385,Bons-en-Chablais,46.270046,6.366246,1,1,2,Bons-en-Chablais
385,386,Perrignier,46.303259,6.4249208,3,2,3,Perrignier
386,387,Chatillon-en-Michaille,46.1432843356237,5.798410177230835,3,2,2,Valserhône
387,388,St-Germain-de-Joux,46.178073511807575,5.737706422805786,3,2,3,Saint-Germain-de-Joux
388,389,Charix-Lalleyriat,46.155958,5.714973,1,3,2,Le Poizat-Lalleyriat
389,390,Seyssel-Corbonod,45.9630307,5.8315162,3,3,4,Corbonod
390,391,Rumilly,45.862989,5.947938,2,3,2,Rumilly
391,392,Lyon Jean Mace,45.74495,4.84139,1,3,4,Lyon
392,393,Pringy (Haute Savoie),45.9395239,6.1232736,3,3,2,Annecy
393,394,St-Martin-Bellevue,45.95,6.133333,2,2,2,Annecy
394,395,Reignier,46.1256159,6.2675466,3,1,4,Reignier-Ésery
395,396,Les Bossons,45.9067455,6.8391969,3,3,4,Chamonix-Mont-Blanc
396,397,Les Pelerins,45.9125671,6.8472858,2,1,2,Chamonix-Mont-Blanc
397,398,Les Moussoux,45.9166347,6.8589899,1,2,4,Chamonix-Mont-Blanc
398,399,Les Praz-de-Chamonix,45.9394594,6.888753,2,1,4,Chamonix-Mont-Blanc
399,400,Les Tines,45.9505693,6.8991603,1,2,4,Chamonix-Mont-Blanc
400,401,La Joux,45.9657075,6.910179,1,3,2,Chamonix-Mont-Blanc
401,402,Argentiere,45.9819438,6.9264844,3,3,4,Chamonix-Mont-Blanc
402,403,Montroc-le-Planet,45.996415,6.9345425,3,3,3,Chamonix-Mont-Blanc
403,404,Geneve Voyageurs,46.209768,6.140756,2,1,2,Genève
404,405,Gresin,46.09159,5.86146,3,3,4,Léaz
405,406,Logras,46.180598,5.918237,2,3,4,Péron
406,407,Sauverny,46.316667,6.116667,1,1,2,Sauverny
407,408,Villemotier,46.34585743182882,5.320644378662109,1,3,4,Villemotier
408,409,Gardanne,43.455992,5.463332,3,2,4,Gardanne
409,410,Seon-St-Henry,43.3624191,5.3399592,1,1,2,Marseille
410,411,St-Louis-les-Aygalades,43.3461208,5.3651173,2,3,2,Marseille
411,412,St-Marcel,43.28818,5.4671155,1,2,3,Marseille
412,413,La Pomme,43.2905165,5.4413152,1,1,2,Marseille
413,414,Aubagne,43.296045,5.56658,3,1,3,Aubagne
414,415,Septemes,43.4031137,5.3701756,3,1,2,Septèmes-les-Vallons
415,416,Ste-Marthe-en-Provence,43.3392414,5.390412,2,2,2,Marseille
416,417,Berre,43.5008861,5.1789508,3,3,2,Berre-l'Étang
417,418,Pas-des-Lanciers,43.409655,5.253822,2,2,4,Marignane
418,419,Istres,43.5153953,4.9804272,1,3,3,Istres
419,420,Rassuen,43.4966716,4.9731266,2,2,3,Istres
420,421,Fos-sur-Mer,43.428029,4.974579,1,2,3,Port-de-Bouc
421,422,Croix-Sainte,43.4088317,5.0196445,2,3,2,Martigues
422,423,Martigues,43.3929209,5.0257804,2,1,2,Martigues
423,424,La Couronne-Carro,43.3398078,5.0517077,2,2,2,Martigues
424,425,Arles,43.684853,4.63203,2,2,4,Arles
425,426,Salon,43.639061,5.088569,3,2,4,Salon-de-Provence
426,427,St-Cyr-Les Lecques-La Cadiere,43.185509,5.703858,1,2,2,Saint-Cyr-sur-Mer
427,428,Ollioules-Sanary-sur-Mer,43.122586,5.824979,3,2,2,Ollioules
428,429,La Garde,43.1187044,6.0100767,3,3,3,La Garde
429,430,St-Laurent-du-Var,43.662451,7.194413,3,2,3,Saint-Laurent-du-Var
430,431,Fontan-Saorge,43.9966378,7.5516262,1,2,4,Fontan
431,432,Annonay,45.233333,4.666667,2,1,3,Annonay
432,433,Ranguin,43.5691636,6.9693134,2,3,2,Cannes
433,434,Annonay Gare Routiere,45.24368147571794,4.668642282485962,1,2,2,Annonay
434,435,Romans-Bourg-de-Peage,45.048857,5.0498,2,1,2,Romans-sur-Isère
435,436,St-Hilaire-St-Nazaire,45.0713405,5.243851,1,2,2,Saint-Hilaire-du-Rosier
436,437,St-Marcellin,45.150898,5.323649,3,2,4,Saint-Marcellin
437,438,Pierrelatte,44.374719,4.703783,1,1,4,Pierrelatte
438,439,Le Teil Sablons,44.55,4.683333,2,1,3,Le Teil
439,440,Le Teil Melas,44.55,4.683333,2,3,2,Le Teil
440,441,Montfavet,43.932635,4.873943,1,3,2,Avignon
441,442,Vergeze-Codognan,43.739877,4.218842,3,2,4,Vergèze
442,443,Chasserades,44.5539847,3.8399319,3,3,4,Mont Lozère et Goulet
443,444,Boucoiran,43.9926943,4.187634,2,2,3,Boucoiran-et-Nozières
444,445,Nozieres-Brignon,43.9760134,4.2072916,3,3,3,Boucoiran-et-Nozières
445,446,Estillac,44.166667,0.55,2,2,2,Roquefort
446,447,Besseges,44.283333,4.1,2,3,2,Robiac-Rochessadoule
447,448,Villedieu-les-Poeles Centre,48.837171,-1.223521,3,1,3,Villedieu-les-Poêles-Rouffigny
448,449,Port-la-Nouvelle,43.0199342,3.0388188,3,3,3,Port-la-Nouvelle
449,450,Condom,43.958163,0.37199,2,1,3,Condom
450,451,Aumont-Aubrac,44.7181699,3.2835489,1,2,2,Peyre en Aubrac
451,452,Chirac,44.5246607,3.2638181,1,1,3,Bourgs sur Colagne
452,453,Banassac-La Canourgue,44.4477632,3.1958518,3,1,4,Banassac-Canilhac
453,454,Engayresque,44.250587,3.064746,2,2,2,Sévérac d'Aveyron
454,455,Belvezet,44.5617971,3.7518919,1,2,2,Mont Lozère et Goulet
455,456,Gages Mairie,44.39596,2.70747,2,1,3,Montrozier
456,457,Bertholene,44.383333,2.783333,3,3,2,Bertholène
457,458,Laissac,44.3750307,2.8222251,1,2,2,Laissac-Sévérac l'Église
458,459,Recoules,44.333333,2.966667,3,3,4,Sévérac d'Aveyron
459,460,Ferney Centre,46.258577,6.11063,3,2,4,Ferney-Voltaire
460,461,Lyon St-Exupery TGV,45.721109,5.074969,1,3,4,Colombier-Saugnieu
461,462,Joue-les-Tours,47.3541741,0.6675586,3,2,3,Joué-lès-Tours
462,463,Krimmeri-Meinau,48.56358,7.75259,3,1,2,Strasbourg
463,464,La Frayere,43.558103,6.972087,1,3,2,Cannes
464,465,Lamballe,48.46606,-2.511546,2,1,4,Lamballe-Armor
465,466,Troyes Lombards,48.27824,4.067241,3,1,2,Troyes
466,467,Albi Montplaisir,43.934427,2.202545,1,3,2,Saint-Juéry
467,468,Le Bosquet,43.551532,6.981669,2,3,4,Cannes
468,469,Le Bois-Plage-en-Re Marche,46.183333,-1.383333,3,1,2,Le Bois-Plage-en-Ré
469,470,La Bastide-St-Laurent-les-Bains,44.5934829,3.9042849,1,1,4,La Bastide-Puylaurent
470,471,La Douzillere,47.3388167,0.6528244,2,1,2,Joué-lès-Tours
471,472,Le Havre Graville,49.4998007,0.1608551,1,2,3,Le Havre
472,473,L'Estaque,43.363628,5.3213598,1,3,2,Marseille
473,474,Gex,46.333333,6.066667,3,2,2,Gex
474,475,Gex Vertes Campagnes,46.328129,6.055754,3,1,2,Gex
475,476,Libercourt,50.48025,3.00867,3,2,4,Libercourt
476,477,Limoges,45.83572150763156,1.2651658058166504,3,2,3,Limoges
477,478,Le Monastier,44.5089682,3.252057,1,1,3,Bourgs sur Colagne
478,479,Montlucon,46.333333,2.6,1,1,4,Montluçon
479,480,Lyon Part-Dieu,45.760559,4.859355,3,3,4,Lyon
480,481,Lyon Perrache,45.748476,4.825733,3,3,3,Lyon
481,482,Toulouse Gallieni Canceropole,43.5730877,1.4195801,1,2,4,Toulouse
482,483,La Pauline-Hyeres,43.1364769,6.0351027,1,1,4,La Garde
483,484,La Poterie,48.0923448,-1.6307729,1,2,4,Rennes
484,485,Le Puy-en-Velay,45.042866,3.892421,1,3,3,Le Puy-en-Velay
485,486,La Rochelle Ville,46.15269,-1.145305,3,2,4,La Rochelle
486,487,Lyon St-Paul,45.76601,4.827057,3,1,3,Lyon
487,488,La Source Universite,47.838317,1.944285,1,2,4,Orléans
488,489,Les Fontinettes,50.940831,1.8496343,1,3,3,Calais
489,490,Lyon Gorge de Loup,45.766078,4.804631,2,3,2,Lyon
490,491,Lyon,45.76765767630457,4.834907054901123,3,1,4,Lyon
491,492,Miramas,43.580704,5.000264,1,2,4,Miramas
492,493,Marseille Blancarde,43.29614391,5.406559,1,2,3,Marseille
493,494,St-Martin-de-Crau,43.6223344,4.8003403,3,1,2,Saint-Martin-de-Crau
494,495,Morcenx,44.033565,-0.90864,3,3,2,Morcenx-la-Nouvelle
495,496,Mezidon,49.071,-0.07496,3,3,2,Mézidon Vallée d'Auge
496,497,Montlucon Rimard,46.3355913,2.6115119,1,3,3,Montluçon
497,498,Montmelian,45.503059,6.043289,2,3,2,Montmélian
498,499,Aeroport Marseille-Provence Bus,43.44129735202746,5.237088203430176,1,3,3,Vitrolles
499,500,Montpellier St-Roch,43.604738,3.880674,3,2,3,Montpellier
500,501,Marseille,43.29640973957932,5.371000170707703,1,1,3,Marseille
501,502,Marseille St-Charles,43.302666,5.380407,2,1,4,Marseille
502,503,Metz Nord,49.13673,6.16791,2,2,3,Metz
503,504,Castres,43.599131,2.231223,3,1,4,Castres
504,505,Nice,43.69664545590452,7.2719407081604,1,1,4,Nice
505,506,Nice St-Augustin,43.670728,7.216199,3,1,4,Nice
506,507,Nice Riquier,43.705554,7.290175,2,3,2,Nice
507,508,Nice Ville,43.704556,7.261904,2,2,4,Nice
508,509,Nice St-Roch,43.715342,7.286869,3,3,2,Nice
509,510,Neussargues,45.1253044,2.9791866,2,1,3,Neussargues en Pinatelle
510,511,Ferney,46.258577,6.11063,2,1,2,Ferney-Voltaire
511,512,Nantes,47.216148,-1.542356,3,2,2,Nantes
512,513,Aubenas,44.616667,4.383333,3,3,4,Aubenas
513,514,Aubenas Place de la Paix,44.61797397996671,4.389209747314453,1,3,2,Aubenas
514,515,Obermodern,48.8426083,7.547015,1,3,3,Obermodern-Zutzendorf
515,516,Brignoles,43.40595166064919,6.05647087097168,1,3,2,Brignoles
516,517,St-Maximin,43.45,5.866667,1,1,2,Saint-Maximin-la-Sainte-Baume
517,518,Orleans Gare Routiere,47.90845,1.90668,2,3,4,Orléans
518,519,Orleans,47.916667,1.9,3,1,4,Orléans
519,520,Oyonnax,46.259742,5.653338,1,2,4,Oyonnax
520,521,Paris Bercy Bourgogne-Pays d'Auvergne,48.83917,2.38278,3,1,2,Paris
521,522,Port-de-Bouc,43.4071317,4.9846006,3,1,3,Port-de-Bouc
522,523,Luz-St-Sauveur,42.87336945723386,-0.0025427341461181,2,1,4,Luz-Saint-Sauveur
523,524,Picon-Busserine,43.3309989,5.3927456,1,2,3,Marseille
524,525,Marseille St-Antoine,43.3695993,5.3578102,3,1,4,Marseille
525,526,St-Joseph-le-Castellas,43.3518976,5.3770681,2,3,3,Marseille
526,527,Pierrefitte-Nestalas,42.966667,-0.066667,2,2,2,Pierrefitte-Nestalas
527,528,Le Puy-en-Velay Lafayette,45.04339,3.880283,1,1,4,Le Puy-en-Velay
528,529,Perpignan,42.696292,2.879779,1,1,4,Perpignan
529,530,Poitiers Gare Routiere,46.583333,0.333333,3,3,3,Poitiers
530,531,Poitiers,46.582275,0.333241,2,2,4,Poitiers
531,532,Aime-la-Plagne,45.5544,6.648646,1,3,3,Aime-la-Plagne
532,533,Amiens,49.890746,2.312592,2,1,4,Amiens
533,534,Miramont-d'Astarac,43.532403,0.421288,3,3,2,Mirande
534,535,Besancon,47.23792,6.02432,1,1,4,Besançon
535,536,Macon,46.3,4.833333,1,2,2,Saint-Laurent-sur-Saône
536,537,Chateau-Renault,47.583333,0.916667,3,1,2,Auzouer-en-Touraine
537,538,Chateau-Renault Salle des Fetes,47.587131,0.908117,1,2,4,Auzouer-en-Touraine
538,539,La Valbonne,45.849225,5.124911,3,2,3,Béligneux
539,540,Aix-en-Provence Centre,43.522912,5.445345,1,1,2,Aix-en-Provence
540,541,Troyes,48.296069,4.065281,1,1,3,Troyes
541,542,Rennes,48.083333,-1.683333,1,3,2,Rennes
542,543,Rodez,44.362633,2.58056,1,3,4,Rodez
543,544,Ria,42.6034078,2.3907488,1,1,2,Ria-Sirach
544,545,La Rochelle,46.15251603337616,-1.1455178260803225,3,1,2,La Rochelle
545,546,La Rochelle Porte Dauphine,46.16755,-1.1518412,1,3,4,La Rochelle
546,547,Brion-Montreal-la-Cluse,46.1757013,5.5585203,1,3,4,Brion
547,548,Ruoms,44.45,4.35,3,1,2,Ruoms
548,549,Aubignas-Pignatelle,44.563411,4.614828,2,2,3,Alba-la-Romaine
549,550,St-Cesaire,43.8133863,4.3276399,2,1,2,Nîmes
550,551,Reims Franchet d'Esperey,49.2425356,4.013869,2,1,3,Reims
551,552,St-Genis-Pouilly Centre,46.24436944673613,6.026333570480347,3,3,2,Saint-Genis-Pouilly
552,553,St-Girons,42.98629,1.14378,3,2,4,Saint-Girons
553,554,St-Agne,43.579674,1.450209,2,3,3,Toulouse
554,555,Marigny Centre (Manche),49.09848697798081,-1.2430429458618164,3,1,4,Marigny-Le-Lozon
555,556,St-Martin-de-Re,46.20563878889878,-1.364949345588684,1,2,3,Saint-Martin-de-Ré
556,557,Soyons,44.897774,4.856089,1,2,4,Valence
557,558,St-Roch,49.8933575,2.2837132,2,1,2,Amiens
558,559,Basel St. Johann,47.570213,7.571982,3,2,2,Basel
559,560,Severac-le-Chateau,44.3246516,3.0569451,2,3,4,Sévérac d'Aveyron
560,561,Saincaize,46.9314165,3.0718704,3,1,2,Saincaize-Meauce
561,562,St-Cyprien Arenes,43.593438,1.417986,1,1,4,Toulouse
562,563,Chateau-Gontier Centre,47.829462,-0.705833,3,3,3,Château-Gontier-sur-Mayenne
563,564,Thoiry Mairie,46.230758,5.980352,3,1,2,Thoiry
564,565,Toulon,43.12837,5.929293,1,3,3,Toulon
565,566,Toulouse,43.60446386099808,1.444004774093628,3,1,3,Toulouse
566,567,Toulouse St-Michel,43.586095272195166,1.447121500968933,3,3,2,Toulouse
567,568,Toulouse Langlade,43.572045,1.44302,1,1,3,Toulouse
568,569,Toulouse Croix de Pierre,43.5852870498513,1.4282548427581785,3,1,4,Toulouse
569,570,Toulouse Matabiau,43.611206,1.453616,3,3,3,Toulouse
570,571,Toulouse Jeanne d'Arc,43.621522,1.465951,3,2,4,Toulouse
571,572,Toulouse Bellevue,43.604496,1.461502,1,3,4,Toulouse
572,573,Nantes Centre,47.216317,-1.548329,3,3,3,Nantes
573,574,Troyes Delestraint Belgique,48.2883687684885,4.07392680644989,1,1,2,Troyes
574,575,Geneve,46.208942,6.145262,3,2,2,Genève
575,576,Geneve Cornavin,46.210208,6.142428,1,1,2,Genève
576,577,Troyes Victor Hugo,48.281449,4.079628,3,3,4,Troyes
577,578,Humes RN19,47.9,5.283333,3,3,4,Humes-Jorquenay
578,579,La Trivalle,44.339023,3.008959,2,2,4,Sévérac d'Aveyron
579,580,St-Girons Capots,42.98394202033053,1.1426424980163574,1,2,2,Saint-Girons
580,581,Mazamet Avenue de Toulouse,43.5,2.4,2,3,4,Bout-du-Pont-de-Larn
581,582,Toulouse Gare Routiere,43.612586,1.453133,3,3,2,Toulouse
582,583,Soual Eglise,43.55421,2.11535,1,1,2,Soual
583,584,Castres Gare Routiere,43.6,2.25,2,2,4,Castres
584,585,Lagarrigue la Vitarelle,43.581286,2.276149,3,3,4,Castres
585,586,Rodez Centre,44.354235,2.577667,3,3,3,Rodez
586,587,Foncouverte,43.915712,2.290415,2,3,4,Bellegarde-Marsal
587,588,Villenouvelle Vieille Halle,43.440218,1.651686,3,3,2,Villenouvelle
588,589,Lisle-sur-Tarn Place Paul Saissac,43.85,1.8,1,1,2,Lisle-sur-Tarn
589,590,Baraque-Lortal,44.30934,2.128348,3,2,3,Le Bas Ségala
590,591,Gages le Pont RN88,44.394441,2.712072,2,2,4,Montrozier
591,592,Severac-le-Chateau Mairie,44.316667,3.066667,3,2,4,Sévérac d'Aveyron
592,593,Ornezan,43.516667,0.6,2,2,2,Ornézan
593,594,Castelnau-Magnoac,43.294422414420765,0.5054998397827148,1,2,2,Castelnau-Magnoac
594,595,Mazamet la Richarde,43.5,2.4,3,1,3,Bout-du-Pont-de-Larn
595,596,Montsaunes Eglise,43.116667,0.933333,2,1,4,Montsaunès
596,597,Vic-Fezensac Mairie,43.758895,0.29988,3,1,4,Vic-Fezensac
597,598,St-Jean-Poutge,43.733333,0.383333,1,1,2,Saint-Jean-Poutge
598,599,Babeau-Bouldoux,43.435883070067874,2.909601330757141,1,3,2,Babeau-Bouldoux
599,600,Aucamville,43.666667,1.433333,3,3,4,Toulouse
600,601,Baraqueville le Lac,44.277905,2.434431,2,3,3,Baraqueville
601,602,Cazaux-Couderc,43.054725,1.50429,1,1,3,Montégut-Plantaurel
602,603,Montegut-Plantaurel,43.066667,1.5,3,1,2,Montégut-Plantaurel
603,604,St-Affrique-les-Montagnes,43.53358,2.205053,3,2,3,Saint-Affrique-les-Montagnes
604,605,Vers-Le Cuzoul,44.479857,1.542584,1,3,2,Saint-Géry-Vers
605,606,St-Gery Pont,44.483333,1.583333,2,1,4,Saint-Géry-Vers
606,607,Rouen Rive Droite,49.448764,1.094087,3,1,2,Rouen
607,608,Rouen Gare Routiere,49.443129,1.099319,2,2,4,Rouen
608,609,Rouen,49.443129,1.099319,3,2,3,Rouen
609,610,Valence Ville,44.928049,4.893273,2,1,3,Valence
610,611,Valence,44.93324,4.89236,1,1,4,Valence
611,612,Velluire Centre,46.402218,-0.894363,3,2,3,Les Velluire-sur-Vendée
612,613,Vendenheim,48.6659659,7.7177824,1,1,2,Vendenheim
613,614,Bourg-St-Andeol Hotel de Ville,44.366667,4.65,3,3,4,Pierrelatte
614,615,Arcachon,44.659009,-1.16523,3,1,3,Arcachon
615,616,Bethune,50.52144,2.64055,3,2,3,Béthune
616,617,Bourg-en-Bresse,46.200351,5.215063,1,1,2,Bourg-en-Bresse
617,618,Blois - Chambord,47.585445,1.323823,1,3,4,Blois
618,619,Bernay,49.087102,0.595634,2,2,3,Bernay
619,620,Le Creusot TGV,46.765343,4.499513,1,2,3,Torcy
620,621,Chamonix Mont Blanc,45.92277,6.87363,3,3,2,Chamonix-Mont-Blanc
621,622,La Ciotat,43.199593,5.632647,2,3,2,La Ciotat
622,623,Douai,50.371677,3.089986,2,3,2,Douai
623,624,Evian-les-Bains,46.397915,6.577457,1,1,3,Évian-les-Bains
624,625,Hyeres,43.108867,6.124223,3,2,2,Hyères
625,626,Monaco-Monte-Carlo,43.738211,7.419606,2,1,3,Monaco
626,627,La Roche-sur-Yon,46.67212,-1.435621,3,3,2,La Roche-sur-Yon
627,628,Les Arcs-Draguignan,43.455524,6.482498,1,1,4,Les Arcs-sur-Argens
628,629,Selestat,48.2601166,7.443278,2,2,3,Sélestat
629,630,St-Claude,46.3899539,5.8603471,3,2,2,Saint-Claude
630,631,Vesoul,47.6177734,6.151926,1,2,4,Vesoul
631,632,Ydes,45.3391,2.454145,1,2,3,Ydes
632,633,Basel,47.567,7.583,3,3,2,Basel
633,634,Basel SBB,47.5470755094,7.589169996,2,1,2,Basel
634,635,London St-Pancras,51.531921,-0.126361,1,3,2,London
635,636,Amsterdam-Centraal,52.37919,4.899426,1,1,2,Amsterdam
636,637,Antwerpen-Centraal,51.21552672202654,4.42100465297699,2,3,4,Antwerpen
637,638,Brussels-Airport-Zaventem,50.8985400058829,4.483022689819336,3,2,3,Zaventem
638,639,Antwerpen,51.221722,4.40586,3,1,3,Antwerpen
639,640,Antwerpen-Oost,51.207357,4.436392,2,1,2,Berchem
640,641,Blandain Ville,50.617431,3.26374,3,1,3,Baisieux
641,642,Brugge,51.19722998626312,3.217062950134277,3,3,3,Brugge
642,643,Bruxelles,50.846519579618366,4.351739287376404,3,1,4,Ville de Bruxelles - Stad Brussel
643,644,Charleroi-Sud,50.404422,4.438774,2,3,2,Charleroi
644,645,Namur,50.468983,4.862499,2,2,3,Namur
645,646,Chene-Bourg,46.1966,6.1973,1,2,3,Chêne-Bourg
646,647,Oberwald,46.530638,8.342088,2,3,4,Obergoms
647,648,Poschiavo,46.32465,10.054308,1,1,2,Poschiavo
648,649,Le Prese,46.290464,10.078157,3,1,3,Poschiavo
649,650,Reckingen,46.469304,8.243413,1,1,3,Goms
650,651,Winterthur,47.500331,8.723815,1,3,3,Winterthur
651,652,Stalden-Saas,46.231836,7.870289,2,3,4,Stalden (VS)
652,653,Versam-Safien,46.807389,9.310208,1,3,3,Safiental
653,654,Wil SG,47.462406,9.040981,1,1,3,Wil (SG)
654,655,Crans Montana Gare,46.312905,7.489221,3,1,4,Crans-Montana
655,656,Bassecourt,47.336691,7.24686,2,3,2,Haute-Sorne
656,657,Grandgourt,47.470757,7.048136,2,1,3,Basse-Allaine
657,658,Walenstadt,47.119854,9.312977,3,2,4,Walenstadt
658,659,Winterthur Gruze,47.499046,8.750899,1,1,3,Winterthur
659,660,Winterthur Seen,47.487342,8.767062,1,1,4,Winterthur
660,661,Weite,47.091466,9.501625,3,1,4,Wartau
661,662,Zurich Oerlikon,47.411904,8.544453,3,3,4,Zürich
662,663,Vernier,46.220591,6.093886,2,1,3,Vernier
663,664,Travers,46.942407,6.676585,2,3,4,Val-de-Travers
664,665,Hohtenn,46.3226,7.764729,2,1,4,Steg-Hohtenn
665,666,Ruti ZH,47.26049,8.854069,2,2,3,Rüti (ZH)
666,667,Oberwinterthur,47.507621,8.760419,2,2,4,Winterthur
667,668,Rivera-Bironico,46.123975,8.925281,3,2,3,Monteceneri
668,669,Courtemaiche,47.455863,7.055371,3,3,4,Basse-Allaine
669,670,Capolago-Riva-San-Vitale,45.902831,8.978893,1,3,4,Mendrisio
670,671,Trubbach,47.071582,9.480347,2,2,2,Wartau
671,672,Arbon,47.510579,9.43336,1,1,4,Arbon
672,673,Goldach,47.473948,9.466953,3,1,2,Goldach
673,674,Morschwil,47.47455,9.414294,1,1,4,Mörschwil
674,675,Riddes,46.172499,7.217834,1,3,2,Riddes
675,676,Gampel-Steg,46.306519,7.747577,1,2,4,Steg-Hohtenn
676,677,Effretikon,47.425739,8.68695,3,1,3,Illnau-Effretikon
677,678,Alp grum,46.374621,10.031287,2,2,2,Poschiavo
678,679,Turtmann,46.309314,7.699602,3,3,4,Turtmann-Unterems
679,680,Romanshorn,47.56553,9.379362,1,2,2,Romanshorn
680,681,Buix,47.479764,7.030148,2,1,3,Basse-Allaine
681,682,Langnau im Emmental,46.939242,7.784181,1,2,2,Langnau im Emmental
682,683,Murten,46.925354,7.115267,2,2,2,Murten
683,684,Courfaivre,47.335064,7.291123,2,2,4,Haute-Sorne
684,685,St-Ursanne,47.367695,7.165939,3,2,4,Clos du Doubs
685,686,Palezieux,46.542753,6.837877,2,1,4,Oron
686,687,Satigny,46.214217,6.037505,1,3,3,Satigny
687,688,Rapperswil,47.224884,8.816727,3,2,2,Rapperswil-Jona
688,689,Zurich HB,47.378186,8.539203,2,1,2,Zürich
689,690,Lausanne,46.516704,6.62905,3,1,4,Lausanne
690,691,Zurich Enge,47.364145,8.530646,3,2,2,Zürich
691,692,Gornergrat,45.98341,7.782159,1,2,4,Zermatt
692,693,Grachen Post,46.1965,7.839843,3,2,3,Grächen
693,694,St-Luc Poste,46.223404,7.593125,2,2,2,Anniviers
694,695,Zinal Poste,46.13762,7.624785,2,3,3,Anniviers
695,696,Braunwald,46.938685,8.998597,1,1,4,Glarus Süd
696,697,Bern Hbf,46.949113,7.438483,1,3,3,Bern
697,698,Chandolin Poste,46.252287,7.596801,3,2,3,Anniviers
698,699,Crans-sur-Sierre Poste,46.307265,7.466593,1,3,3,Crans-Montana
699,700,Evian-les-Bains Port,46.402452,6.594828,1,1,2,Évian-les-Bains
700,701,Geneve Aeroport,46.232376,6.112098,1,2,4,Le Grand-Saconnex
701,702,Glovelier,47.335226,7.209276,2,1,4,Haute-Sorne
702,703,Grimentz Poste,46.178548,7.576225,3,2,3,Anniviers
703,704,Haute-Nendaz Village,46.189138,7.300364,2,2,4,Nendaz
704,705,Lugano,46.005506,8.946873,1,2,3,Lugano
705,706,Luzern,47.050142,8.31068,2,1,4,Luzern
706,707,St-Moritz,46.498187,9.846631,3,2,2,Sankt Moritz
707,708,Vissoie Poste,46.215134,7.585484,3,3,4,Anniviers
708,709,Chur,46.85344,9.528475,2,1,3,Chur
709,710,Les Diablerets,46.351159,7.155017,1,3,4,Ormont-Dessus
710,711,Anzere poste,46.295965,7.396333,1,1,2,Ayent
711,712,Zurich,47.378968,8.540534,3,1,3,Zürich
712,713,Tortosa,40.807197,0.523576,2,2,4,Tortosa
713,714,Albacete-Los Llanos,39.000086,-1.847579,1,2,2,Albacete
714,715,San Clodio-Quiroga,42.465122,-7.287231,2,3,4,Ribas de Sil
715,716,Valladolid Campo Grande,41.641971,-4.727004,2,2,3,Valladolid
716,717,Briviesca,42.542555,-3.319194,2,3,4,Briviesca
717,718,Vitoria - Gasteiz,42.841213,-2.672618,2,1,4,Vitoria-Gasteiz
718,719,Palencia,42.01585,-4.533826,1,3,4,Palencia
719,720,Ponferrada,42.545576,-6.60263,2,3,4,Ponferrada
720,721,Oviedo,43.366237,-5.855339,2,3,4,Oviedo
721,722,Herradon - La Canada,40.599231,-4.494876,1,3,3,Herradón de Pinares
722,723,Guimorcondo,40.648915,-4.615124,2,1,3,Ávila
723,724,Zamora,41.515987,-5.739909,2,3,3,Zamora
724,725,Pobra de San Xian,42.865761,-7.446868,2,3,2,Láncara
725,726,Toledo,39.8624,-4.01125,1,2,4,Toledo
726,727,Baamonde,43.173337,-7.756324,1,2,2,Begonte
727,728,Ourense-San Francisco,42.332603,-7.860662,1,1,2,Ourense
728,729,Freginals,40.6722143,0.520465800000011,2,1,2,Freginals
729,730,Valencia de Alcantara,39.427119,-7.23085,2,2,4,Valencia de Alcántara
730,731,Adanero (Munoz),40.94487,-4.60561,1,3,4,Adanero
731,732,Aranda de Duero-Montecillo,41.667778,-3.695836,2,1,2,Aranda de Duero
732,733,Segovia Estacion,40.934062,-4.11332,1,2,3,Segovia
733,734,Gomeznarro,41.25036,-4.8432,1,2,4,Medina del Campo
734,735,Puente Genil Estacion,37.395966,-4.75308,3,2,2,Puente Genil
735,736,Ronda,36.748531,-5.162127,3,1,2,Ronda
736,737,Moreda,37.43075,-3.310987,1,1,2,Morelábor
737,738,Salou,41.077502,1.129296,1,1,2,Salou
738,739,Teruel,40.340998,-1.110194,2,2,2,Teruel
739,740,Sitges,41.239182,1.8096,1,2,2,Sitges
740,741,Lleida,41.620775,0.63302,3,1,4,Lleida
741,742,Macanet - Massanes,41.775874,2.674389,2,2,3,Massanes
742,743,Llanca,42.36669,3.149101,3,3,2,Llançà
743,744,Santiago de Compostela,42.870518,-8.544687,3,3,4,Santiago de Compostela
744,745,Sevilla San Bernardo,37.377596,-5.979552,2,2,3,Sevilla
745,746,Sant Vicenc de Calders,41.186111,1.524167,3,1,2,el Vendrell
746,747,Villaverde Bajo,40.352873,-3.683779,3,1,3,Madrid
747,748,Algeciras,36.12672,-5.450995,3,1,2,Algeciras
748,749,Sagunt,39.675779,-0.271564,3,2,2,Sagunt / Sagunto
749,750,Sabadell Sud,41.528725,2.105183,3,3,4,Sabadell
750,751,Merida,38.921548,-6.343157,3,2,3,Mérida
751,752,Mataro,41.533375,2.445464,2,2,2,Mataró
752,753,Logrono,42.457778,-2.440833,3,1,3,Logroño
753,754,Huesca,42.133178,-0.409953,3,2,2,Huesca
754,755,Huelva,37.252655,-6.950675,2,1,3,Huelva
755,756,Gijon-Sanz Crespo,43.537697,-5.675932,2,1,4,Gijón/Xixón
756,757,Elx Parc,38.269209,-0.706462,1,3,4,Elx / Elche
757,758,Cartagena,37.605023,-0.974763,2,2,3,Cartagena
758,759,Cambrils,41.07005,1.052888,2,3,2,Cambrils
759,760,Canfranc,42.751258,-0.513805,3,2,4,Canfranc
760,761,Malaga-Maria Zambrano,36.711819,-4.43214,3,1,2,Málaga
761,762,Ciudad Real,38.985029,-3.912914,2,2,4,Ciudad Real
762,763,Guillarei,42.065669,-8.622264,3,3,2,Tui
763,764,Pontevedra,42.421534,-8.635496,2,2,2,Pontevedra
764,765,Santander Estacion,43.458287,-3.811435,3,3,2,Santander
765,766,Jerez de la Frontera,36.6782,-6.125159,3,2,3,Jerez de la Frontera
766,767,Guadalajara,40.632399,-3.160243,3,1,2,Guadalajara
767,768,Ferrol,43.488266,-8.230855,3,2,2,Ferrol
768,769,Reus,41.160644,1.100216,3,1,3,Reus
769,770,Alacant-Terminal,38.344444,-0.494972,1,2,2,Alacant / Alicante
770,771,Avila,40.657212,-4.682948,3,1,4,Ávila
771,772,Bilbao Abando,43.259715,-2.927507,2,3,2,Bilbao
772,773,Barcelona,41.38227072942428,2.177385091781616,2,1,2,Barcelona
773,774,Benicarlo-Peniscola,40.427088,0.414753,1,2,2,Benicarló
774,775,Badajoz,38.890867,-6.981822,3,2,4,Badajoz
775,776,Barcelona Sants,41.378911,2.140367,2,2,2,Barcelona
776,777,Burgos,42.35,-3.7,1,1,3,Burgos
777,778,Cadiz,36.527945,-6.286893,1,1,3,Cádiz
778,779,Caceres,39.461197,-6.385972,1,2,2,Cáceres
779,780,Calella,41.614536,2.666028,1,2,3,Calella
780,781,Castellon de la Plana,39.988262,-0.052083,2,3,4,Castelló de la Plana
781,782,Cuenca,40.070409,-2.137628,1,3,3,Cuenca
782,783,San Sebastian-Donostia,43.317668,-1.976781,3,3,2,Donostia/San Sebastián
783,784,Figueres,42.264951,2.969271,2,2,2,Figueres
784,785,Flassa,42.047537,2.957235,2,3,3,Flaçà
785,786,Granollers Centro,41.599308,2.29162,2,2,4,Granollers
786,787,Girona,41.979516,2.816482,2,1,3,Girona
787,788,Granada,37.183906,-3.609061,3,1,3,Granada
788,789,Jaen,37.780223,-3.790975,3,3,2,Jaén
789,790,Leon,42.595888,-5.582382,2,3,4,León
790,791,Lugo,43.015307,-7.55226,3,1,3,Lugo
791,792,Madrid,40.416824,-3.703733,3,3,3,Madrid
792,793,Madrid Principe Pio,40.421272,-3.718846,1,3,3,Madrid
793,794,Madrid Atocha,40.405963,-3.689757,2,1,4,Madrid
794,795,Madrid-Chamartin-Clara Campoamor,40.472151,-3.68235,3,1,3,Madrid
795,796,Medina del Campo Estacion,41.317676,-4.910474,3,3,2,Medina del Campo
796,797,Murcia,37.974489,-1.131499,1,2,2,Murcia
797,798,Cordoba,37.888714,-4.789353,2,1,3,Córdoba
798,799,Port Aventura,41.089251,1.146214,1,3,4,Salou
799,800,Pamplona/Iruna,42.825122,-1.661889,3,3,2,Pamplona/Iruña
800,801,Tarragona Estacio,41.111212,1.253527,3,3,2,Tarragona
801,802,Salamanca,40.971547,-5.648659,3,3,3,Salamanca
802,803,Sevilla,37.389254,-5.984458,1,1,4,Sevilla
803,804,Camp Tarragona,41.192025,1.271587,1,1,3,la Secuita
804,805,Tui,42.0565,-8.64302,1,3,4,Tui
805,806,Vigo,42.236541,-8.713736,1,3,2,Vigo
806,807,Valencia Estacio Nord,39.466932,-0.377151,1,1,4,València
807,808,Blankenheim (Wald),50.441871,6.593506,2,2,4,Blankenheim
808,809,Aachen,50.77607,6.08378,1,2,4,Aachen
809,810,Aachen-Rothe Erde,50.770202,6.116476,2,2,2,Aachen
810,811,Aachen Hbf,50.767802,6.091495,3,3,4,Aachen
811,812,Aachen Sud (Gr),50.731917,6.045407,2,2,4,Aachen
812,813,Aachen West,50.78036,6.070712,3,1,4,Aachen
813,814,Efringen-Kirchen,47.65562,7.563919,3,1,4,Efringen-Kirchen
814,815,Aalen,48.841009,10.09627,2,3,2,Aalen
815,816,Grub am Forst,50.227523,11.025853,3,3,2,Grub a.Forst
816,817,Hamburg-Neugraben,53.47414,9.852051,1,2,2,Hamburg
817,818,Morsum Bahnhof,54.872007,8.431917,3,3,4,Sylt
818,819,Neustadt (Kr Marburg),50.850449,9.120644,1,1,3,Neustadt
819,820,Pleinfeld,49.106281,10.977366,1,1,4,Pleinfeld
820,821,Porz (Rhein),50.882909,7.064721,2,2,4,Köln
821,822,Siedlinghausen,51.257759,8.473834,1,1,2,Winterberg
822,823,Silbach,51.223672,8.481124,3,2,3,Winterberg
823,824,Stade,53.596141,9.477201,1,3,2,Stade
824,825,Stuttgart-Vaihingen,48.72628,9.113228,1,2,2,Stuttgart
825,826,Weilerswist,50.750291,6.845078,2,2,3,Weilerswist
826,827,Winnenden,48.879582,9.392289,2,2,2,Winnenden
827,828,Wattenscheid,51.473267,7.139925,2,1,3,Bochum
828,829,Winterberg (Westf),51.198583,8.532408,1,3,2,Winterberg
829,830,Altena (Westf),51.301663,7.669389,1,2,4,Altena
830,831,Altenstadt (Iller),48.161191,10.109979,1,1,2,Altenstadt
831,832,Annweiler am Trifels,49.205387,7.96615,1,3,2,Annweiler am Trifels
832,833,Aulendorf,47.953055,9.64405,3,3,2,Aulendorf
833,834,Altglashutten-Falkau,47.859387,8.114113,1,2,2,Feldberg
834,835,Bredstedt,54.620947,8.970416,2,3,3,Bredstedt
835,836,Bad Ems,50.327654,7.728637,1,1,4,Bad Ems
836,837,Bad Schussenried,47.994037,9.6685,3,3,4,Bad Schussenried
837,838,Bad Harzburg,51.888119,10.555448,3,3,3,Bad Harzburg
838,839,Bad Kissingen,50.191549,10.079883,2,3,3,Bad Kissingen
839,840,Bad Bentheim,52.309848,7.158541,2,1,2,Bad Bentheim
840,841,Biberach (Baden),48.338386,8.03276,1,2,3,Biberach
841,842,Biberach (Riss),48.101844,9.793127,1,1,3,Biberach an der Riß
842,843,Bremen-Burg,53.159733,8.704803,3,3,2,Bremen
843,844,Brilon Wald,51.349162,8.576068,1,3,2,Brilon
844,845,Betzdorf (Sieg),50.789295,7.870046,1,3,3,Betzdorf
845,846,Bremerhaven-Lehe,53.566342,8.600564,1,3,4,Bremerhaven
846,847,Bodenwohr Nord,49.278379,12.325945,2,3,4,Bodenwöhr
847,848,Fehmarn-Burg,54.443069,11.189709,1,3,3,Fehmarn
848,849,Augsburg Hbf,48.365444,10.885568,1,1,4,Augsburg
849,850,Ohringen-Cappel,49.201917,9.526686,3,2,3,Öhringen
850,851,Diez,50.370128,8.019618,1,1,4,Diez
851,852,Dillenburg,50.734884,8.294086,2,2,3,Dillenburg
852,853,Dorum (Weserm),53.688604,8.575843,2,1,2,Wurster Nordseeküste
853,854,Dusseldorf-Bilk,51.207995,6.775574,3,2,4,Düsseldorf
854,855,Diebach,50.128678,9.837659,2,1,3,Hammelburg
855,856,Elmshorn,53.755223,9.659062,1,3,3,Elmshorn
856,857,Erkrath,51.220454,6.902412,1,3,2,Erkrath
857,858,Erlangen,49.595896,11.001906,2,1,3,Erlangen
858,859,Erzingen (Baden),47.659539,8.430119,2,2,3,Klettgau
859,860,Essen-Altenessen,51.484305,7.007199,2,1,2,Essen
860,861,Euskirchen,50.657756,6.792195,2,3,2,Euskirchen
861,862,Eutingen im Gau,48.479949,8.782236,3,2,2,Eutingen im Gäu
862,863,Florsheim (Main),50.017212,8.431009,3,2,3,Flörsheim
863,864,Friedberg (Hess),50.332607,8.762055,2,3,4,Friedberg
864,865,Feldberg-Barental,47.871442,8.098292,3,3,3,Feldberg
865,866,Forchheim (Oberfr),49.717071,11.069856,2,2,4,Forchheim
866,867,Freiburg-Littenweiler,47.981667,7.895135,3,2,4,Freiburg im Breisgau
867,868,Frankfurt (Main) West,50.118862,8.639334,2,1,2,Frankfurt am Main
868,869,Geldern,51.513287,6.319335,3,2,4,Geldern
869,870,Hannover Hbf,52.376763,9.741016,3,2,2,Hannover
870,871,Grafing Bahnhof,48.043459,11.940299,2,3,4,Grafing bei München
871,872,Gaildorf West,49.003822,9.753889,1,1,2,Gaildorf
872,873,Grossenbrode,54.366463,11.081227,3,2,4,Großenbrode
873,874,Goldshofe,48.894351,10.128667,1,1,4,Aalen
874,875,Frankfurt (M) Flughafen,50.051209,8.570971,3,3,2,Frankfurt am Main
875,876,Haltern am See,51.737666,7.184367,2,1,4,Haltern am See
876,877,Hammelburg,50.120066,9.882983,2,3,3,Hammelburg
877,878,Hannover-Kleefeld,52.373608,9.79061,3,2,4,Hannover
878,879,Herborn (Dillkr),50.6844,8.308136,2,1,3,Herborn
879,880,Hildesheim Hbf,52.160627,9.953494,1,1,2,Hildesheim
880,881,Hofen (Enz) Bf,48.798562,8.581039,2,3,2,Höfen an der Enz
881,882,Horstel,52.295672,7.591758,3,2,4,Hörstel
882,883,Hersbruck (l Pegnitz),49.500458,11.435141,1,1,2,Hersbruck
883,884,Hochdorf (b Horb),48.482304,8.723042,2,1,4,Eutingen im Gäu
884,885,Siegen-Weidenau,50.895988,8.030036,3,2,4,Siegen
885,886,Hergatz,47.646613,9.827151,3,3,4,Hergatz
886,887,Heidelberg-Kirchheim/Rohrbach,49.379391,8.675381,1,2,3,Heidelberg
887,888,Ibbenburen,52.276866,7.721482,1,2,2,Ibbenbüren
888,889,Ingolstadt Hbf,48.744537,11.437335,3,2,2,Ingolstadt
889,890,Itzehoe,53.923384,9.510389,1,2,3,Itzehoe
890,891,Salzburg,47.7981346,13.0464806,2,3,3,Salzburg
891,892,Keitum,54.888817,8.368966,3,2,4,Sylt
892,893,Kellmunz,48.120281,10.124613,3,3,2,Kellmünz a.d.Iller
893,894,Kassel-Wilhelmshohe,51.313115,9.446898,2,3,3,Kassel
894,895,Kirn,49.785767,7.464588,2,3,2,Kirn
895,896,Kleve,51.789732,6.146221,3,2,4,Kleve
896,897,Koln Sud,50.927298,6.938063,1,3,2,Köln
897,898,Koln-Ehrenfeld,50.951533,6.91728,1,3,2,Köln
898,899,Klingenberg (Main),49.781416,9.176548,2,2,3,Klingenberg am Main
899,900,Kressbronn,47.594223,9.598708,1,2,4,Kressbronn am Bodensee
900,901,Krefeld-Uerdingen,51.357279,6.645779,3,1,3,Krefeld
901,902,Nurtingen,48.628001,9.34265,3,1,2,Nürtingen
902,903,Lage (Lippe),51.99083,8.802381,3,1,4,Lage
903,904,Ibbenburen-Laggenbeck,52.264857,7.780963,2,2,2,Ibbenbüren
904,905,Laufen (Oberbay),47.933656,12.922362,1,3,2,Laufen
905,906,Letmathe,51.362834,7.618393,3,1,3,Iserlohn
906,907,Langenlonsheim,49.901368,7.899891,3,2,3,Langenlonsheim
907,908,Lingen (Ems),52.519863,7.321731,2,3,2,Lingen (Ems)
908,909,Ludwigsburg,48.891861,9.18542,2,1,3,Ludwigsburg
909,910,Lowental,47.6614,9.499242,2,3,2,Friedrichshafen
910,911,Ludwigshafen (Bodensee),47.815655,9.053189,3,3,4,Bodman-Ludwigshafen
911,912,Leverkusen Mitte,51.03151,6.991657,1,3,2,Leverkusen
912,913,Mainz-Kastel,50.006578,8.283173,2,2,3,Wiesbaden
913,914,Bad Malente-Gremsmuhlen,54.166848,10.551583,1,3,3,Malente
914,915,Mannheim-Friedrichsfeld,49.448671,8.580122,2,3,2,Edingen-Neckarhausen
915,916,Marburg (Lahn),50.819274,8.775017,1,2,4,Marburg
916,917,Markt Bibart,49.646092,10.425464,2,2,3,Markt Bibart
917,918,Meppen,52.696024,7.298018,1,1,3,Meppen
918,919,Merzig (Saar),49.436419,6.634191,1,2,3,Merzig
919,920,Molln (Lauenb),53.624313,10.682573,1,1,4,Mölln
920,921,Monchengladbach Hbf,51.196579,6.44611,3,2,4,Mönchengladbach
921,922,Morlesau,50.117109,9.798799,3,1,3,Hammelburg
922,923,Muhlacker,48.953195,8.846104,3,2,3,Mühlacker
923,924,Murrhardt,48.98276,9.577772,3,3,3,Murrhardt
924,925,Miltenberg,49.706482,9.24847,3,1,4,Miltenberg
925,926,Neuss Hbf,51.204444,6.684396,2,1,3,Neuss
926,927,Neustadt (Holst),54.104499,10.80827,1,3,2,Neustadt in Holstein
927,928,Nabburg,49.44717,12.180698,3,2,2,Nabburg
928,929,Neuwied,50.431462,7.473128,2,2,2,Neuwied
929,930,Nordholz,53.778379,8.620628,3,1,3,Wurster Nordseeküste
930,931,Nortorf,54.166633,9.852581,1,1,3,Nortorf
931,932,Niebull,54.789603,8.834571,1,1,2,Niebüll
932,933,Oberhausen Hbf,51.475118,6.852036,1,1,3,Oberhausen
933,934,Oberndorf (Neckar),48.295382,8.575637,2,1,4,Oberndorf am Neckar
934,935,Oberstaufen,47.554203,10.025282,1,1,4,Oberstaufen
935,936,Uhldingen-Muhlhofen,47.736999,9.248416,3,3,3,Uhldingen-Mühlhofen
936,937,Oberwesel,50.104461,7.731541,1,2,2,Oberwesel
937,938,Oberstdorf,47.411032,10.278095,3,2,4,Oberstdorf
938,939,Oldenburg (Oldb),53.144343,8.22246,3,2,3,Oldenburg
939,940,Oppenheim,49.857563,8.35808,2,2,4,Oppenheim
940,941,Oldenburg (Holst),54.283573,10.883222,2,1,2,Oldenburg in Holstein
941,942,Paderborn Hbf,51.712982,8.740508,1,1,4,Paderborn
942,943,Parsberg,49.164351,11.723353,1,1,3,Parsberg
943,944,Gummersbach,51.023635,7.56631,1,3,2,Gummersbach
944,945,Pforzheim Hbf,48.894154,8.703095,3,2,2,Pforzheim
945,946,Brotzingen Mitte,48.889461,8.66703,2,2,3,Pforzheim
946,947,Ponitz,50.858099,12.4167,1,2,4,Ponitz
947,948,Reutlingen Hbf,48.49603,9.209196,2,1,4,Reutlingen
948,949,Recklinghausen Hbf,51.616357,7.203487,2,3,2,Recklinghausen
949,950,Remagen,50.577213,7.229781,3,2,2,Remagen
950,951,Remscheid-Lennep,51.190727,7.252829,3,3,3,Remscheid
951,952,Rheine,52.2763,7.434258,1,3,3,Rheine
952,953,Rheinhausen,51.393505,6.706483,1,1,2,Duisburg
953,954,Rheydt Hbf,51.163049,6.439359,3,1,3,Mönchengladbach
954,955,Rothenbach (Allgau),47.620616,9.953539,2,1,2,Röthenbach (Allgäu)
955,956,Regensburg Hbf,49.011669,12.099615,3,2,4,Regensburg
956,957,Roth,49.24129,11.082503,3,1,3,Roth
957,958,Russelsheim,49.991638,8.413579,3,1,3,Rüsselsheim am Main
958,959,Ravensburg,47.784336,9.60607,2,3,4,Ravensburg
959,960,Roding,49.214475,12.515744,3,3,4,Roding
960,961,Ritterhude,53.183635,8.753893,1,3,3,Ritterhude
961,962,Schenkenzell,48.308425,8.371887,3,1,2,Schenkenzell
962,963,Sachsenhausen (Nordb),52.772271,13.25187,2,2,2,Oranienburg
963,964,Salzgitter-Bad,52.049826,10.372338,1,1,3,Salzgitter
964,965,Salzgitter-Ringelheim,52.038302,10.315274,2,3,3,Salzgitter
965,966,St Georgen (Schwarzw),48.123895,8.342205,3,2,4,St. Georgen im Schwarzwald
966,967,Schuttorf,52.316841,7.220612,3,2,4,Schüttorf
967,968,Schifferstadt,49.392911,8.364948,1,2,3,Schifferstadt
968,969,Schleswig,54.499746,9.537509,3,1,4,Schleswig
969,970,Scherfede,51.524775,9.046483,3,2,4,Warburg
970,971,Schorndorf,48.807147,9.526309,2,3,2,Schorndorf
971,972,Schwabisch Hall,49.108214,9.733357,3,1,3,Schwäbisch Hall
972,973,Siegen,50.876086,8.016661,1,2,4,Siegen
973,974,Soest,51.578422,8.104593,3,1,3,Soest
974,975,Solingen Hbf,51.160909,7.004241,2,1,4,Solingen
975,976,Stolberg (Rheinland) Hbf,50.794914,6.218431,2,1,3,Stolberg
976,977,Sulz (Neckar),48.366487,8.636745,2,2,2,Sulz am Neckar
977,978,Stuttgart-Bad Cannstatt,48.801376,9.217529,3,3,3,Stuttgart
978,979,Springe,52.215146,9.556234,2,1,2,Springe
979,980,Steinheim (Westf),51.868342,9.088579,2,1,2,Steinheim
980,981,Schwarzenfeld (Opf),49.392749,12.130637,2,2,4,Schwarzenfeld
981,982,Suderbrarup,54.637407,9.770905,1,1,4,Süderbrarup
982,983,Teisendorf,47.8494,12.834447,3,2,3,Teisendorf
983,984,Unterluss,52.834314,10.299903,2,3,3,Südheide
984,985,Varel (Oldb),53.399098,8.150186,1,2,3,Varel
985,986,Wanne-Eickel Hbf,51.531256,7.165787,3,1,3,Herne
986,987,Warburg (Westf),51.492953,9.163846,2,2,3,Warburg
987,988,Wasserburg (Bodensee),47.571822,9.638944,2,3,2,Wasserburg (Bodensee)
988,989,Wasseralfingen,48.858287,10.103461,3,3,3,Aalen
989,990,Westerland (Sylt),54.90729,8.310311,3,3,4,Sylt
990,991,Westheim-Langendorf,50.125775,9.932747,3,2,2,Hammelburg
991,992,Basel Badischer Bahnhof,47.567292,7.607804,3,1,3,Basel
992,993,Willebadessen,51.621795,9.011829,1,3,2,Willebadessen
993,994,Wetzlar,50.565662,8.504217,1,3,3,Wetzlar
994,995,Wilster,53.926306,9.383515,2,3,4,Wilster
995,996,Winden (Pfalz),49.095422,8.122257,2,1,3,Winden
996,997,Wremen,53.646481,8.52127,1,1,4,Wurster Nordseeküste
997,998,Wrist,53.932724,9.748226,3,1,3,Wrist
998,999,Windischeschenbach,49.794747,12.165173,2,2,2,Windischeschenbach
999,1000,Weissenau,47.765971,9.594384,3,2,3,Ravensburg
1000,1001,Wiesbaden-Biebrich,50.048827,8.23642,1,1,2,Wiesbaden
1001,1002,Bad Tolz,47.760263,11.573773,3,2,2,Bad Tölz
1002,1003,Munchen Harras,48.117746,11.536315,2,3,3,München
1003,1004,Raisdorf,54.280876,10.243567,1,3,4,Schwentinental
1004,1005,Bochum,51.478651,7.224109,3,2,4,Bochum
1005,1006,Bochum-Langendreer,51.478031,7.323727,1,3,3,Bochum
1006,1007,Bochum Hbf,51.478651,7.224109,3,2,4,Bochum
1007,1008,Hamburg Hbf,53.552732,10.006908,2,2,4,Hamburg
1008,1009,Dusseldorf Hbf,51.21996,6.794316,1,2,4,Düsseldorf
1009,1010,Munchen Hbf,48.140228,11.558338,1,2,4,München
1010,1011,Puttgarden (MS),54.502047,11.227904,2,1,3,Fehmarn
1011,1012,Bocholt,51.834121,6.620429,3,2,2,Bocholt
1012,1013,Warendorf,51.949992,7.985252,1,2,2,Warendorf
1013,1014,Weissenfels,51.204831,11.9708,3,3,2,Weißenfels
1014,1015,Berlin-Lichtenberg,52.509894,13.496925,2,2,2,Berlin
1015,1016,Waren (Muritz),53.521513,12.680678,3,1,2,Waren (Müritz)
1016,1017,Oebisfelde,52.439598,10.984899,2,1,3,Oebisfelde-Weferlingen
1017,1018,Dresden-Neustadt,51.065768,13.740928,1,1,4,Dresden
1018,1019,Berlin Friedrichstr,52.520393,13.387311,2,2,4,Berlin
1019,1020,Berlin Zoologischer Garten,52.507278,13.331991,3,1,2,Berlin
1020,1021,Bad Kleinen,53.766972,11.466927,1,3,2,Bad Kleinen
1021,1022,Dresden,51.040562,13.732038,1,2,3,Dresden
1022,1023,Dresden Hbf,51.040562,13.732038,1,2,2,Dresden
1023,1024,Buchholz (Nordheide),53.324568,9.876592,3,3,3,Buchholz in der Nordheide
1024,1025,Jena West,50.923289,11.577845,3,2,2,Jena
1025,1026,Berlin,52.520501,13.386987,1,3,4,Berlin
1026,1027,Berlin Sudkreuz,52.47547476075327,13.365570902824402,1,2,3,Berlin
1027,1028,Backnang,48.942767,9.42652,2,2,4,Backnang
1028,1029,Berlin-Charlottenburg,52.504725,13.303522,2,3,4,Berlin
1029,1030,Bielefeld Hbf,52.029258,8.532722,3,2,3,Bielefeld
1030,1031,Bremerhaven,53.534916,8.599557,1,1,2,Bremerhaven
1031,1032,Bremerhaven Hbf,53.534916,8.599557,2,1,3,Bremerhaven
1032,1033,Berlin Ostbahnhof,52.510972,13.434567,2,2,4,Berlin
1033,1034,Bad Honnef (Rhein),50.639769,7.219533,3,1,2,Bad Honnef
1034,1035,Bremen Hbf,53.083477,8.813833,1,3,2,Bremen
1035,1036,Butzbach,50.431156,8.66952,1,3,2,Butzbach
1036,1037,Butzow,53.836809,11.997749,2,2,3,Bützow
1037,1038,Cottbus,51.750952,14.324158,3,3,3,Cottbus - Chóśebuz
1038,1039,Koln,50.941312,6.967206,2,1,3,Köln
1039,1040,Koln-Mulheim,50.957987,7.013294,1,2,2,Köln
1040,1041,Koln Messe/Deutz,50.940871,6.975,2,1,3,Köln
1041,1042,Koln Hbf,50.943029,6.958729,3,2,4,Köln
1042,1043,Celle,52.621171,10.062704,2,1,2,Celle
1043,1044,Darmstadt Hbf,49.872503,8.629635,1,1,3,Darmstadt
1044,1045,Dusseldorf-Benrath,51.162375,6.87904,1,1,4,Düsseldorf
1045,1046,Dusseldorf Flughafen,51.292008,6.786837,2,3,4,Düsseldorf
1046,1047,Duisburg Hbf,51.429786,6.775906,2,1,3,Duisburg
1047,1048,Duren,50.809395,6.482031,3,3,3,Düren
1048,1049,Dusseldorf,51.21996,6.794316,2,3,3,Düsseldorf
1049,1050,Ehrang,49.802028,6.685808,2,3,2,Trier
1050,1051,Ellwangen,48.964117,10.129683,1,3,2,Ellwangen (Jagst)
1051,1052,Erfurt Hbf,50.972549,11.038501,1,1,3,Erfurt
1052,1053,Erkelenz,51.076564,6.321717,1,3,3,Erkelenz
1053,1054,Essen Hbf,51.451351,7.014795,2,3,4,Essen
1054,1055,Furth (Bay) Hbf,49.469706,10.989987,2,1,3,Fürth
1055,1056,Friedrichshafen Stadt,47.65322,9.473902,2,2,3,Friedrichshafen
1056,1057,Frankfurt (M) Flughafen Fernbf,50.05290581298199,8.569872379302979,2,2,4,Frankfurt am Main
1057,1058,Freiburg (Breisgau) Hbf,47.99769026993626,7.841593623161316,3,1,2,Freiburg im Breisgau
1058,1059,Bergen auf Rugen,54.420497,13.41782,1,3,2,Bergen auf Rügen
1059,1060,Binz LB,54.392783,13.609947,2,3,2,Binz
1060,1061,Frankfurt (Main),50.107149,8.663785,1,3,4,Frankfurt am Main
1061,1062,Frankfurt (Main) Sud,50.09958,8.686303,2,2,2,Frankfurt am Main
1062,1063,Frankfurt (Main) Hbf,50.107149,8.663785,2,1,4,Frankfurt am Main
1063,1064,Frankfurt-Hochst,50.102636,8.542368,3,3,2,Frankfurt am Main
1064,1065,Giessen,50.579056,8.661466,2,3,3,Gießen
1065,1066,Gelsenkirchen Hbf,51.505016,7.102583,1,2,4,Gelsenkirchen
1066,1067,Gottingen,51.536614,9.925682,2,1,2,Göttingen
1067,1068,Grosskorbetha,51.267315,12.022173,1,2,4,Weißenfels
1068,1069,Gutersloh Hbf,51.90732,8.385632,3,1,2,Gütersloh
1069,1070,Hannover,52.376763,9.741016,3,1,2,Hannover
1070,1071,Hannover Messe/Laatzen,52.316895,9.792866,1,2,4,Laatzen
1071,1072,Hamburg-Altona,53.552696,9.935174,3,2,4,Hamburg
1072,1073,Hamburg,53.563816,9.965836,1,2,4,Hamburg
1073,1074,Hamburg Dammtor,53.560751,9.989568,3,3,4,Hamburg
1074,1075,Hamburg-Harburg,53.456296,9.991591,3,1,4,Hamburg
1075,1076,Hanau Hbf,50.12128,8.929165,3,3,2,Hanau
1076,1077,Berlin Hbf,52.525589,13.369548,3,1,2,Berlin
1077,1078,Heilbronn Hbf,49.143308,9.207713,3,1,4,Heilbronn
1078,1079,Heidelberg,49.403779,8.675741,3,3,4,Heidelberg
1079,1080,Heidelberg Hbf,49.403779,8.675741,3,3,3,Heidelberg
1080,1081,Hersbruck (Pegnitz),49.503928,11.426611,2,2,4,Hersbruck
1081,1082,Hersbruck (r Pegnitz),49.510076,11.423824,3,2,4,Hersbruck
1082,1083,Herne,51.543652,7.217825,3,2,3,Herne
1083,1084,Horrem,50.91625,6.713494,2,3,3,Kerpen
1084,1085,Koln/Bonn Flughafen,50.8789,7.119303,3,3,2,Köln
1085,1086,Karlsruhe-Durlach,49.001961,8.462364,1,3,4,Karlsruhe
1086,1087,Krefeld,51.325772,6.570224,2,2,4,Krefeld
1087,1088,Krefeld Hbf,51.325772,6.570224,3,3,3,Krefeld
1088,1089,Kirchhain (Bz Kassel),50.823778,8.921398,1,1,4,Kirchhain
1089,1090,Kiel Hbf,54.314982,10.131975,1,2,4,Kiel
1090,1091,Karlsruhe,48.99350964955472,8.401848077774048,3,2,4,Karlsruhe
1091,1092,Karlsruhe Hbf,48.99350964955472,8.401848077774048,2,2,3,Karlsruhe
1092,1093,Kaiserslautern Hbf,49.43614,7.768711,1,2,3,Kaiserslautern
1093,1094,Kassel Hbf,51.318257,9.489498,2,2,2,Kassel
1094,1095,Lubeck Hbf,53.867768,10.670348,2,1,4,Lübeck
1095,1096,Lubeck,53.867768,10.670348,1,2,3,Lübeck
1096,1097,Leipzig Hbf,51.346546,12.383333,3,2,4,Leipzig
1097,1098,Munchen Ost,48.127437,11.604975,2,1,3,München
1098,1099,Munchen-Pasing,48.149892,11.461489,3,3,4,München
1099,1100,Munchen,48.140228,11.558338,2,3,3,München
1100,1101,Munster (Westf) Hbf,51.956563,7.635716,1,3,2,Münster
1101,1102,Neu Isenburg,50.053052,8.66561,2,1,4,Neu-Isenburg
1102,1103,Nurnberg Hbf,49.445615,11.082989,1,1,2,Nürnberg
1103,1104,Freiburg (Breisgau),47.9954,7.8495,2,2,3,Freiburg im Breisgau
1104,1105,Pforzheim,48.894154,8.703095,3,1,2,Pforzheim
1105,1106,Puttgarden,54.500941,11.227832,2,1,2,Fehmarn
1106,1107,Ulm Hbf,48.399432,9.982224,3,1,2,Ulm
1107,1108,Wurzburg Hbf,49.801794,9.935777,1,3,3,Würzburg
1108,1109,Ribnitz-Damgarten West,54.239175,12.436962,3,3,2,Ribnitz-Damgarten
1109,1110,Salzgitter,52.106134,10.390649,2,3,4,Salzgitter
1110,1111,Saarbrucken Hbf,49.24115221039208,6.990984678268433,3,3,4,Saarbrücken
1111,1112,Stuttgart Hbf,48.784081,9.181636,3,1,4,Stuttgart
1112,1113,Solingen,51.160909,7.004241,2,3,3,Solingen
1113,1114,Stuttgart,48.784081,9.181636,2,1,4,Stuttgart
1114,1115,Wiesbaden Hbf,50.070788,8.243728,2,3,4,Wiesbaden
1115,1116,Wiesbaden,50.070788,8.243728,3,1,2,Wiesbaden
1116,1117,Potsdam,52.391703,13.066782,2,3,4,Potsdam
1117,1118,Potsdam Hbf,52.391703,13.066782,3,2,3,Potsdam
1118,1119,Hagen Hbf,51.362744,7.460246,1,1,3,Hagen
1119,1120,Frankfurt (Oder),52.336159,14.546506,2,1,4,Frankfurt (Oder)
1120,1121,Zittau,50.904348,14.8058,3,1,3,Zittau
1121,1122,Jena Saalbf,50.937096,11.593918,3,1,3,Jena
1122,1123,Magdeburg Hbf,52.130351,11.62689,3,1,3,Magdeburg
1123,1124,Hamm (Westf),51.678077,7.807823,1,2,3,Hamm
1124,1125,Koblenz Hbf,50.35108,7.588648,2,1,2,Koblenz
1125,1126,Mulheim (Ruhr) Hbf,51.431323,6.88668,1,3,2,Mülheim an der Ruhr
1126,1127,Rostock Hbf,54.078323,12.131706,1,3,2,Rostock
1127,1128,Sassnitz,54.516286,13.637912,3,3,4,Sassnitz
1128,1129,Chemnitz Hbf,50.839266,12.930299,1,1,2,Chemnitz
1129,1130,Warnemunde,54.176853,12.091273,1,1,3,Rostock
1130,1131,Southampton Central,50.907742,-1.413983,2,2,4,Southampton
1131,1132,Liverpool Central,53.40525,-2.977841,3,1,3,Liverpool
1132,1133,Tonbridge,51.191132,0.269715,1,3,3,Tonbridge and Malling
1133,1134,Huntingdon,52.328613,-0.192047,1,3,4,Huntingdonshire
1134,1135,Bognor Regis,50.786594,-0.676384,1,3,4,Arun
1135,1136,New Pudsey,53.804573,-1.679581,1,2,4,Leeds
1136,1137,Northallerton,54.333084,-1.441718,3,3,4,Hambleton
1137,1138,Retford,53.315872,-0.94772,3,1,3,Bassetlaw
1138,1139,Selby,53.78336,-1.06355,3,3,2,Selby
1139,1140,Sunderland,54.90617,-1.382357,2,2,2,Sunderland
1140,1141,Thirsk,54.228489,-1.372573,3,3,3,Hambleton
1141,1142,Wakefield Westgate,53.681736,-1.506386,1,3,2,Wakefield
1142,1143,Greenwich,51.477779,-0.014198,3,1,2,London
1143,1144,Perth,56.39275,-3.440068,2,1,2,Perth
1144,1145,Stirling,56.119114,-3.934915,2,2,3,Stirling
1145,1146,Portsmouth Harbour,50.796097,-1.108895,2,2,2,Portsmouth
1146,1147,Hull,53.744144,-0.345645,3,3,4,Hull
1147,1148,Winchester,51.067303,-1.320628,2,3,3,Winchester
1148,1149,Alfreton,53.100414,-1.369689,1,1,4,Amber Valley
1149,1150,Leicester,52.631397,-1.125274,1,2,3,Leicester
1150,1151,Taunton,51.023613,-3.102146,3,2,3,Somerset West and Taunton
1151,1152,Teignmouth,50.547993,-3.494712,1,3,3,Teignbridge
1152,1153,Totnes,50.435623,-3.688317,3,1,4,South Hams
1153,1154,Truro,50.263603,-5.063017,3,3,2,Truro
1154,1155,Worcester Shrub Hill,52.194817,-2.210642,1,1,2,Worcester
1155,1156,Mexborough,53.490986,-1.28855,2,2,4,Doncaster
1156,1157,Rotherham Central,53.429356,-1.358811,1,3,4,Rotherham
1157,1158,Evesham,52.098793,-1.947413,2,1,4,Wychavon
1158,1159,Tiverton Parkway,50.917477,-3.359979,1,3,3,Mid Devon
1159,1160,Kingham,51.902222,-1.629331,1,1,2,West Oxfordshire
1160,1161,Leamington Spa,52.284893,-1.536723,1,3,4,Warwick
1161,1162,Moreton-In-Marsh,51.992336,-1.7014,2,1,2,Cotswold
1162,1163,Conisbrough,53.48885,-1.234333,2,1,3,Doncaster
1163,1164,Norwich,52.627121,1.306879,2,2,4,Norwich
1164,1165,London Liverpool Street,51.517551,-0.08021,2,1,4,City of London
1165,1166,Earlestown,53.451139,-2.637674,3,3,4,St Helens
1166,1167,Long Eaton,52.885105,-1.288114,1,3,3,Erewash
1167,1168,Loughborough,52.779327,-1.194952,1,1,2,Charnwood
1168,1169,Oxenholme Lake District,54.305169,-2.722249,2,3,4,South Lakeland
1169,1170,Solihull,52.415081,-1.78972,2,2,2,Solihull
1170,1171,Stalybridge,53.484471,-2.06264,2,1,3,Tameside
1171,1172,Stoke-On-Trent,53.008012,-2.181119,2,1,4,Stoke-on-Trent
1172,1173,Water Orton,52.518379,-1.743538,2,1,4,North Warwickshire
1173,1174,Watford Junction,51.663475,-0.396506,2,1,2,Watford
1174,1175,Bromley South,51.399887,0.018374,1,3,3,London
1175,1176,Castle Cary,51.099583,-2.522683,1,1,4,South Somerset
1176,1177,Charlbury,51.872929,-1.490133,1,2,4,West Oxfordshire
1177,1178,Dawlish Warren,50.599311,-3.443903,1,3,4,Teignbridge
1178,1179,Great Malvern,52.109165,-2.318289,3,3,2,Malvern Hills
1179,1180,Highbridge & Burnham,51.218098,-2.972192,2,3,3,Sedgemoor
1180,1181,Honeybourne,52.101383,-1.834989,1,1,4,Wychavon
1181,1182,Kemble,51.67622,-2.023115,3,2,3,Cotswold
1182,1183,Bingley,53.84803,-1.837327,3,1,3,Bradford
1183,1184,Malvern Link,52.12534,-2.31987,1,1,4,Malvern Hills
1184,1185,Pershore,52.130249,-2.071555,1,2,2,Wychavon
1185,1186,Keighley,53.86787,-1.90112,3,2,4,Bradford
1186,1187,Yeovil Junction,50.924686,-2.613198,1,1,2,South Somerset
1187,1188,Brockenhurst,50.816708,-1.574112,3,3,3,New Forest
1188,1189,Newhaven Town,50.794888,0.054627,3,3,3,Lewes
1189,1190,East Croydon,51.375679,-0.093335,2,1,2,London
1190,1191,Folkestone Harbour,51.077469,1.188252,1,3,2,Folkestone and Hythe
1191,1192,Cardiff Bay,51.466324,-3.166049,2,2,4,Cardiff
1192,1193,Beeston,52.920551,-1.207211,3,2,4,Broxtowe
1193,1194,Malton,54.13155,-0.798593,3,3,4,Ryedale
1194,1195,Carnforth,54.129688,-2.771244,3,2,3,Lancaster
1195,1196,Ealing Broadway,51.51466,-0.300843,3,3,4,London
1196,1197,Pinhoe,50.738079,-3.469582,2,1,3,Exeter
1197,1198,Eccles,53.485443,-2.333014,3,3,2,Salford
1198,1199,Grange-Over-Sands,54.195282,-2.902752,2,2,2,South Lakeland
1199,1200,Hinckley,52.534969,-1.371916,1,2,3,Hinckley and Bosworth
1200,1201,Kirkham & Wesham,53.787373,-2.881834,2,3,3,Fylde
1201,1202,Shipley,53.833553,-1.773558,3,3,3,Bradford
1202,1203,Ramsgate,51.340767,1.405833,2,2,2,Thanet
1203,1204,Market Harborough,52.480366,-0.908868,1,2,3,Harborough
1204,1205,Melton Mowbray,52.760643,-0.885564,2,1,2,Melton
1205,1206,Newton-Le-Willows,53.452873,-2.614369,3,3,2,St Helens
1206,1207,New Mills Central,53.364567,-2.007485,1,3,2,High Peak
1207,1208,Patricroft,53.484745,-2.357919,3,2,3,Salford
1208,1209,Penrith,54.661831,-2.758044,1,2,2,Eden
1209,1210,Poulton-Le-Fylde,53.848128,-2.990212,1,2,4,Wyre
1210,1211,St Albans,51.748829,-0.326842,1,3,3,St Albans
1211,1212,Skipton,53.958691,-2.025878,2,1,2,Craven
1212,1213,St Helens Junction,53.433525,-2.699892,1,1,3,St Helens
1213,1214,Templecombe,51.001083,-2.417532,3,3,4,South Somerset
1214,1215,Axminster,50.778976,-3.005613,2,1,4,East Devon
1215,1216,Crewkerne,50.873337,-2.778815,2,2,4,South Somerset
1216,1217,Feniton,50.787022,-3.285259,1,2,3,East Devon
1217,1218,Honiton,50.797062,-3.186207,3,2,3,East Devon
1218,1219,Worcester Foregate Street,52.194801,-2.220885,3,2,2,Worcester
1219,1220,Whimple,50.768253,-3.354243,3,2,3,East Devon
1220,1221,Andover,51.212048,-1.493167,1,3,4,Test Valley
1221,1222,Ashford International,51.143434,0.875153,2,2,3,Ashford
1222,1223,Eastleigh,50.968559,-1.350563,2,2,3,Eastleigh
1223,1224,Portsmouth & Southsea,50.797756,-1.090417,1,3,4,Portsmouth
1224,1225,Redhill,51.240124,-0.164851,1,2,4,Reigate and Banstead
1225,1226,Audley End,52.004398,0.20719,2,2,3,Uttlesford
1226,1227,Bishops Stortford,51.866692,0.16557,1,1,4,East Hertfordshire
1227,1228,Bury St Edmunds,52.253727,0.713355,3,3,2,West Suffolk
1228,1229,Stowmarket,52.190105,1.000662,1,3,2,Mid Suffolk
1229,1230,Chelmsford,51.736595,0.469316,3,3,2,Chelmsford
1230,1231,Arnside,54.202114,-2.827783,3,2,3,South Lakeland
1231,1232,Downham Market,52.60471,0.365751,3,1,2,King's Lynn and West Norfolk
1232,1233,Ely,52.390846,0.266105,3,2,2,East Cambridgeshire
1233,1234,Gainsborough Lea Road,53.386078,-0.768558,3,2,2,West Lindsey
1234,1235,Kings Lynn,52.754108,0.403475,1,3,3,King's Lynn and West Norfolk
1235,1236,Littleport,52.462696,0.316905,1,1,3,East Cambridgeshire
1236,1237,Southampton Airport Parkway,50.950638,-1.36362,2,2,3,Eastleigh
1237,1238,Watlington,52.672703,0.382736,2,3,3,King's Lynn and West Norfolk
1238,1239,March,52.560432,0.090409,1,3,2,Fenland
1239,1240,Appleby,54.58032,-2.486692,3,1,3,Eden
1240,1241,Spalding,52.788418,-0.156722,3,1,2,South Holland
1241,1242,Sleaford,52.995274,-0.410174,3,2,4,North Kesteven
1242,1243,Stamford,52.647358,-0.480474,2,2,4,South Kesteven
1243,1244,Settle,54.066897,-2.280704,3,1,3,Craven
1244,1245,Thetford,52.419384,0.744109,3,1,2,Breckland
1245,1246,Petersfield,51.006924,-0.940951,3,2,3,East Hampshire
1246,1247,Chichester,50.831821,-0.783032,2,3,3,Chichester
1247,1248,Godalming,51.186115,-0.619175,3,1,2,Waverley
1248,1249,New Milton,50.755836,-1.658313,1,2,4,New Forest
1249,1250,Fratton,50.795818,-1.073422,3,1,2,Portsmouth
1250,1251,Windermere,54.379745,-2.904339,2,2,3,South Lakeland
1251,1252,Liphook,51.071213,-0.801027,2,3,4,East Hampshire
1252,1253,Liss,51.044254,-0.893023,3,2,2,East Hampshire
1253,1254,Romsey,50.992641,-1.492716,1,3,3,Test Valley
1254,1255,Cark,54.177513,-2.972746,3,2,3,South Lakeland
1255,1256,Hunts Cross,53.360644,-2.855716,1,2,4,Liverpool
1256,1257,Langley Mill,53.018236,-1.330982,2,3,2,Amber Valley
1257,1258,Manchester Oxford Road,53.47398,-2.242531,2,1,4,Manchester
1258,1259,Stansted Mountfitchet,51.901495,0.1996419999999999,2,2,2,Uttlesford
1259,1260,Newport (Essex),51.97995,0.216176,3,3,2,Uttlesford
1260,1261,Elsenham,51.92038,0.22779,3,1,3,Uttlesford
1261,1262,Whittlesford Parkway,52.104092,0.165388,3,1,2,South Cambridgeshire
1262,1263,Waterbeach,52.26268,0.196555,2,1,4,South Cambridgeshire
1263,1264,Shenfield,51.630615,0.330602,2,1,4,Brentwood
1264,1265,Faversham,51.311436,0.891278,1,3,4,Swale
1265,1266,Dewsbury,53.692089,-1.633487,3,1,4,Kirklees
1266,1267,Kents Bank,54.172967,-2.925351,1,3,3,South Lakeland
1267,1268,Ulverston,54.191872,-3.097327,2,2,3,South Lakeland
1268,1269,Sandwell & Dudley,52.508431,-2.011281,2,2,2,Sandwell
1269,1270,Shelford,52.149517,0.139805,1,1,2,Cambridge
1270,1271,Great Chesterford,52.060402,0.1939,3,3,4,Uttlesford
1271,1272,Canterbury West,51.284279,1.074608,3,2,4,Canterbury
1272,1273,Skegness,53.143032,0.333926,2,3,2,East Lindsey
1273,1274,Hellifield,54.010972,-2.227961,3,1,4,Craven
1274,1275,Hayes & Harlington,51.502973,-0.420785,3,3,2,London
1275,1276,Harrow & Wealdstone,51.591576,-0.334067,3,1,3,London
1276,1277,Accrington,53.753193,-2.370016,3,2,3,Hyndburn
1277,1278,Bamber Bridge,53.726772,-2.660793,2,3,4,South Ribble
1278,1279,Brierfield,53.824535,-2.236959,3,2,3,Pendle
1279,1280,Burnley Barracks,53.791237,-2.258014,3,2,3,Burnley
1280,1281,Burnley Central,53.793776,-2.244644,2,2,3,Burnley
1281,1282,Church & Oswaldtwistle,53.750431,-2.391216,2,1,2,Hyndburn
1282,1283,Colne,53.85478,-2.181087,2,3,3,Pendle
1283,1284,Derker Metrolink,53.54969,-2.101085,2,1,4,Oldham
1284,1285,Failsworth Metrolink,53.51096,-2.162819,3,3,2,Oldham
1285,1286,Hollinwood Metrolink,53.520267,-2.146953,3,2,3,Oldham
1286,1287,Leyland,53.69886,-2.687101,3,3,4,South Ribble
1287,1288,Milnrow Metrolink,53.608105,-2.111803,1,3,3,Rochdale
1288,1289,Nelson,53.834469,-2.214223,2,1,3,Pendle
1289,1290,Oldham Mumps Metrolink,53.541006,-2.102036,3,2,3,Oldham
1290,1291,Oldham Werneth,53.538723,-2.129272,3,1,2,Oldham
1291,1292,Rishton,53.763813,-2.420165,1,3,3,Hyndburn
1292,1293,Shaw & Crompton Metrolink,53.577496,-2.089634,3,2,3,Oldham
1293,1294,Canterbury East,51.275261,1.075434,1,1,4,Canterbury
1294,1295,Lewes,50.870281,0.012455,3,3,2,Lewes
1295,1296,Folkestone Central,51.082985,1.168331,2,1,4,Folkestone and Hythe
1296,1297,Aberdeen,57.143127,-2.097464,1,3,2,Aberdeen City
1297,1298,Eastbourne,50.769085,0.281847,3,1,2,Eastbourne
1298,1299,Stratford-Upon-Avon Station,52.19376,-1.716148,2,3,4,Stratford-on-Avon
1299,1300,Tunbridge Wells,51.130119,0.262435,2,3,2,Tunbridge Wells
1300,1301,Belfast Central,54.5953,-5.9172,3,3,3,Belfast
1301,1302,Littlehampton,50.810226,-0.546547,2,1,4,Arun
1302,1303,Maidstone East,51.277729,0.520618,1,2,4,Maidstone
1303,1304,Banbury,52.060925,-1.327541,2,2,3,Cherwell
1304,1305,Barnsley,53.553978,-1.477688,2,2,2,Barnsley
1305,1306,Borough Green & Wrotham,51.29295,0.306296,2,1,3,Tonbridge and Malling
1306,1307,Birmingham International,52.450673,-1.725149,3,1,2,Solihull
1307,1308,Birmingham New Street,52.478153,-1.898375,3,2,4,Birmingham
1308,1309,Bradford Interchange,53.791196,-1.749701,3,1,3,Bradford
1309,1310,London Blackfriars,51.510735,-0.103554,1,1,3,City of London
1310,1311,Birmingham,52.483056,-1.893611,3,3,2,Birmingham
1311,1312,Burton-On-Trent,52.805798,-1.64246,1,2,3,East Staffordshire
1312,1313,Barnstaple,51.073532,-4.064032,1,3,2,North Devon
1313,1314,Bristol Temple Meads,51.449093,-2.581349,2,2,3,Bristol
1314,1315,Brighton,50.829659,-0.141234,1,3,2,Brighton
1315,1316,Bridgwater,51.128025,-2.99031,2,3,4,Sedgemoor
1316,1317,Bath Spa,51.378059,-2.356302,3,3,3,Bath
1317,1318,Market Rasen,53.384441,-0.337075,3,2,3,West Lindsey
1318,1319,Carlisle,54.890675,-2.933833,3,3,4,Carlisle
1319,1320,Cambridge Station,52.194519,0.137584,2,3,3,Cambridge
1320,1321,Cardiff Central,51.475193,-3.177794,2,3,4,Cardiff
1321,1322,Chesterfield,53.238209,-1.42011,2,1,4,Chesterfield
1322,1323,Chinley,53.340275,-1.9444,3,3,3,High Peak
1323,1324,Coventry,52.400787,-1.513466,2,2,3,Coventry
1324,1325,Chester,53.196815,-2.880152,2,1,3,Chester
1325,1326,Derby,52.916381,-1.462555,1,3,2,Derby
1326,1327,Durham,54.779408,-1.581746,2,3,4,Durham
1327,1328,Didcot Parkway,51.611275,-1.242614,2,3,2,South Oxfordshire
1328,1329,Doncaster,53.521469,-1.140225,1,1,2,Doncaster
1329,1330,Tamworth,52.63737,-1.687083,1,1,3,Tamworth
1330,1331,Dundee,56.456669,-2.970576,3,3,2,Dundee
1331,1332,Dawlish,50.580692,-3.464583,2,1,4,Teignbridge
1332,1333,Ebbsfleet International,51.443009,0.320887,3,2,2,Dartford
1333,1334,Exeter Central,50.726471,-3.532973,2,2,2,Exeter
1334,1335,Exeter St Davids,50.729019,-3.544387,2,2,2,Exeter
1335,1336,Exeter,50.716667,-3.516667,2,3,3,Exeter
1336,1337,Folkestone,51.081,1.166,1,3,4,Folkestone and Hythe
1337,1338,Gloucester,51.864799,-2.238141,2,1,3,Gloucester
1338,1339,Glasgow,55.858,-4.259,1,2,2,Glasgow
1339,1340,Glasgow Queen Street,55.863003,-4.251385,3,2,4,Glasgow
1340,1341,Glasgow Central,55.860157,-4.259208,2,2,4,Glasgow
1341,1342,Guildford Station,51.236912,-0.580409,3,3,4,Guildford
1342,1343,Huddersfield,53.648407,-1.785142,3,2,3,Kirklees
1343,1344,Halifax,53.720417,-1.854486,3,1,4,Calderdale
1344,1345,Herne Bay,51.364059,1.118742,1,3,2,Canterbury
1345,1346,Hereford,52.060715,-2.708854,3,1,3,Hereford
1346,1347,Harrogate,53.991959,-1.537814,3,3,2,Harrogate
1347,1348,Heathrow Terminals 1-2-3 Rail,51.471,-0.456,2,1,2,Spelthorne
1348,1349,Inverness,57.480194,-4.223199,2,3,4,Inverness
1349,1350,Lancaster,54.048553,-2.807934,2,2,3,Lancaster
1350,1351,London Charing Cross,51.508362,-0.123835,3,1,4,City of Westminster
1351,1352,Lincoln Central,53.227089,-0.540922,2,1,3,Lincoln
1352,1353,Leeds,53.795158,-1.549089,1,2,2,Leeds
1353,1354,London Euston,51.528313,-0.134545,3,2,2,London
1354,1355,Liverpool Lime Street,53.407299,-2.977746,3,3,4,Liverpool
1355,1356,Kensington Olympia,51.497753,-0.210189,3,3,4,London
1356,1357,London,51.50469232881583,-0.0784599781036377,2,2,4,London
1357,1358,London Marylebone,51.52248,-0.163605,1,3,4,London
1358,1359,London Victoria,51.4966,-0.1448,1,3,2,London
1359,1360,London Waterloo,51.501865,-0.111126,1,3,4,London
1360,1361,London Fenchurch Street,51.511234,-0.079039,3,1,2,City of London
1361,1362,London Paddington,51.516014,-0.176049,2,2,4,London
1362,1363,Manchester Piccadilly,53.476704,-2.228991,3,1,2,Manchester
1363,1364,Manchester Airport,53.361568,-2.268941,1,1,4,Manchester
1364,1365,Manchester Victoria,53.487465,-2.242607,3,3,4,Manchester
1365,1366,Aldershot,51.246151,-0.760657,3,2,2,Rushmoor
1366,1367,Barnham,50.831135,-0.639627,1,2,3,Arun
1367,1368,Battle,50.91312,0.495169,1,2,3,Rother
1368,1369,Bicester North,51.903401,-1.150517,2,1,4,Cherwell
1369,1370,Broadstairs,51.360653,1.43317,2,2,3,Thanet
1370,1371,Dartford,51.447548,0.217643,3,1,2,Dartford
1371,1372,East Grinstead,51.126213,-0.017887,3,1,2,Mid Sussex
1372,1373,Effingham Junction,51.291504,-0.419536,1,1,4,Guildford
1373,1374,Epsom Station,51.334339,-0.268756,2,3,3,Epsom and Ewell
1374,1375,Exmouth,50.620937,-3.415035,1,2,3,East Devon
1375,1376,Exton,50.668255,-3.443337,3,2,4,East Devon
1376,1377,Farnham,51.211422,-0.793093,3,2,3,Waverley
1377,1378,Felixstowe,51.967449,1.352707,3,1,4,East Suffolk
1378,1379,Finsbury Park,51.564724,-0.105642,1,2,2,London
1379,1380,Fleet,51.290947,-0.831169,3,3,2,Hart
1380,1381,Gravesend,51.441029,0.36699,1,2,3,Gravesham
1381,1382,Henley-On-Thames,51.534182,-0.900133,1,1,3,South Oxfordshire
1382,1383,Hildenborough,51.214451,0.226465,1,2,2,Tonbridge and Malling
1383,1384,Hitchin,51.952915,-0.262498,1,2,3,North Hertfordshire
1384,1385,Lewisham,51.466099,-0.014703,1,3,4,London
1385,1386,Orpington,51.373463,0.089049,2,1,2,London
1386,1387,Oxted,51.257298,-0.005075,1,2,3,Tandridge
1387,1388,Richmond,51.462505,-0.301346,3,1,3,London
1388,1389,Royston,52.053509,-0.026686,1,1,3,North Hertfordshire
1389,1390,Sevenoaks,51.27734,0.182193,3,1,3,Sevenoaks
1390,1391,Shoeburyness,51.531414,0.795616,2,2,2,Southend-on-Sea
1391,1392,Sittingbourne,51.342201,0.733817,2,1,2,Swale
1392,1393,Southend Victoria,51.542389,0.711184,1,2,4,Southend-on-Sea
1393,1394,Southminster,51.660873,0.835397,2,3,2,Maldon
1394,1395,Staines,51.432873,-0.502415,2,3,3,Spelthorne
1395,1396,Twickenham,51.450321,-0.329136,3,2,3,London
1396,1397,Uckfield,50.968651,0.095048,3,1,3,Wealden
1397,1398,Wakefield Kirkgate,53.67897,-1.488254,2,2,2,Wakefield
1398,1399,Welwyn Garden City,51.800957,-0.203081,3,1,4,Welwyn Hatfield
1399,1400,Wembley Central,51.551468,-0.296592,3,3,4,London
1400,1401,West Ealing,51.513123,-0.320792,3,2,4,London
1401,1402,Weybridge,51.361248,-0.457352,3,2,3,Elmbridge
1402,1403,Wickford,51.615025,0.519052,2,1,4,Basildon
1403,1404,Woolwich Arsenal,51.489815,0.069883,1,3,2,London
1404,1405,Yeovil Pen Mill,50.944466,-2.613461,3,1,4,South Somerset
1405,1406,Farnborough Main,51.296471,-0.756436,2,3,2,Rushmoor
1406,1407,Farnborough North,51.301723,-0.743385,2,3,2,Rushmoor
1407,1408,Lymington Pier,50.758083,-1.529275,3,3,3,New Forest
1408,1409,St Albans Abbey,51.744675,-0.342422,2,1,3,St Albans
1409,1410,Sudbury Hill Harrow,51.558423,-0.336092,3,3,4,London
1410,1411,Manchester,53.483333,-2.25,3,1,4,Salford
1411,1412,Newcastle,54.968243,-1.617264,3,2,3,Newcastle upon Tyne
1412,1413,Newhaven,50.8,0.06,3,1,2,Lewes
1413,1414,Newhaven Harbour,50.790398,0.054433,3,3,3,Lewes
1414,1415,Newark Northgate,53.082542,-0.799644,3,2,3,Newark and Sherwood
1415,1416,Nottingham,52.946905,-1.146441,2,1,4,City of Nottingham
1416,1417,Newton Abbot,50.529507,-3.599957,1,3,2,Teignbridge
1417,1418,Nuneaton,52.526436,-1.463431,3,1,4,Nuneaton and Bedworth
1418,1419,Newport Gwent,51.590145,-2.998873,2,1,2,Newport
1419,1420,Oxford,51.753549,-1.270037,1,2,4,Oxford
1420,1421,Peterborough,52.574947,-0.24981,3,3,2,Peterborough
1421,1422,Plymouth,50.377762,-4.143386,3,3,3,Plymouth
1422,1423,Preston,53.755721,-2.707191,2,2,2,Preston
1423,1424,Rugby,52.378719,-1.249263,1,3,4,Rugby
1424,1425,Rye,50.951916,0.730782,2,3,4,Rother
1425,1426,Salisbury,51.070915,-1.805864,2,1,2,Salisbury
1426,1427,Sheffield,53.378639,-1.463297,3,1,3,Sheffield
1427,1428,Stockport,53.4049,-2.162419,1,2,2,Stockport
1428,1429,Stansted Airport,51.888979,0.26162,3,2,4,Uttlesford
1429,1430,Stafford,52.804466,-2.123088,3,1,4,Stafford
1430,1431,Sutton (Surrey),51.360126,-0.190223,1,3,2,London
1431,1432,Swansea,51.625103,-3.941598,1,2,2,Swansea
1432,1433,Woking (Main),51.31847,-0.557814,1,1,2,Woking
1433,1434,Whitstable,51.358204,1.033577,2,2,4,Canterbury
1434,1435,Wolverhampton,52.587818,-2.119529,1,2,4,Wolverhampton
1435,1436,Heathrow Airport,51.478443,-0.46134,1,3,4,London
1436,1437,York,53.957966,-1.093159,1,2,2,York
1437,1438,Firenze Campo di Marte,43.777574,11.27659,2,2,4,Firenze
1438,1439,Firenze,43.7725042,11.2551002,3,1,4,Firenze
1439,1440,Firenze Santa Maria Novella,43.77681,11.247806,1,1,2,Firenze
1440,1441,Firenze Rifredi,43.800137,11.236408,2,3,2,Firenze
1441,1442,Genova Brignole,44.406999,8.947197,2,3,2,Genova
1442,1443,Genova,44.41633306978571,8.918988704681395,3,1,4,Genova
1443,1444,Genova Piazza Principe,44.417507,8.922072,1,3,2,Genova
1444,1445,Genova Quinto al Mare,44.385,9.020556,1,1,3,Genova
1445,1446,Milano,45.466632090847824,9.19059991836548,2,3,4,Milano
1446,1447,Milano Lambrate,45.485066,9.237225,1,2,3,Milano
1447,1448,Milano Centrale,45.487143,9.204828,1,3,4,Milano
1448,1449,Milano Rogoredo,45.433666,9.239014,2,2,3,Milano
1449,1450,Milano Porta Garibaldi,45.484437,9.187299,1,3,3,Milano
1450,1451,Modena,44.654616,10.929948,2,3,2,Modena
1451,1452,Napoli Centrale,40.852826,14.273072,2,1,2,Napoli
1452,1453,Oulx-Cesana-Claviere-Sestrieres,45.03877849785553,6.831125020980835,1,1,2,Oulx
1453,1454,Parma,44.810219,10.328569,1,2,2,Parma
1454,1455,Brescia,45.532161,10.212869,3,1,4,Brescia
1455,1456,Padova,45.417827,11.88062,2,1,2,Padova
1456,1457,Piacenza,45.052101,9.706363,3,2,4,Piacenza
1457,1458,Reggio di Calabria Centrale,38.104123,15.635792,1,3,2,Reggio di Calabria
1458,1459,Roma,41.8932225,12.4829203,1,1,2,Roma
1459,1460,Roma Tiburtina,41.911072,12.531457,3,3,4,Roma
1460,1461,Roma Termini,41.900833,12.501944,2,3,3,Roma
1461,1462,Roma Ostiense,41.872275,12.484902,3,3,4,Roma
1462,1463,Rimini,44.06424,12.574012,2,1,3,Rimini
1463,1464,Torino,45.07075504730648,7.686063051223755,1,3,2,Torino
1464,1465,Torino Lingotto,45.026194,7.657532,2,3,2,Torino
1465,1466,Torino Porta Nuova,45.061,7.677713,1,2,4,Torino
1466,1467,Torino Porta Susa,45.071832,7.665164,1,1,4,Torino
1467,1468,Venezia,45.43711,12.33475,1,3,3,Venezia
1468,1469,Venezia Santa Lucia,45.441397,12.320462,3,2,4,Mestre
1469,1470,Venezia Mestre,45.481902,12.2319,1,1,2,Venezia
1470,1471,Venezia Carpenedo,45.506676,12.247595,3,3,2,Mestre
1471,1472,Verona Porta Nuova,45.428659,10.982741,3,2,4,Verona
1472,1473,Kautenbach,49.94919,6.021702,2,2,4,Kiischpelt
1473,1474,Luxembourg,49.599717,6.134391,1,2,4,Luxembourg
1474,1475,Alkmaar,52.637954,4.738474,2,3,2,Alkmaar
1475,1476,Amsterdam Sloterdijk,52.389025,4.838111,1,1,3,Amsterdam
1476,1477,Apeldoorn,52.20942,5.96748,1,2,2,Apeldoorn
1477,1478,Delft,52.011424,4.353089,3,3,2,Delft
1478,1479,Deventer,52.257611,6.160109,3,1,3,Deventer
1479,1480,Groningen,53.21258,6.564121,3,2,4,Groningen
1480,1481,Nijmegen,51.841824,5.851707,1,2,3,Nijmegen
1481,1482,Tilburg,51.560938,5.081116,3,1,4,Tilburg
1482,1483,Venlo,51.364407,6.17184,2,1,3,Venlo
1483,1484,Weesp,52.31285,5.038525,2,1,2,Weesp
1484,1485,Amsterdam Amstel,52.346389,4.917778,1,1,4,Amsterdam
1485,1486,Den Haag HS,52.069584,4.322669,1,3,2,Den Haag
1486,1487,Zwolle,52.506379,6.089841,2,1,3,Zwolle
1487,1488,Leeuwarden,53.19622,5.791686,2,2,2,Leeuwarden
1488,1489,Enschede,52.222562,6.890222,1,1,4,Enschede
1489,1490,Amsterdam,52.37863816394399,4.900825023651123,1,2,2,Amsterdam
1490,1491,Amersfoort,52.15366,5.371198,1,1,3,Amersfoort
1491,1492,Arnhem,51.984942,5.899548,3,2,2,Arnhem
1492,1493,Breda,51.594459,4.7764,3,1,4,Breda
1493,1494,Dordrecht,51.807782,4.666821,1,1,4,Dordrecht
1494,1495,Den Haag,52.081,4.3087,2,1,4,Den Haag
1495,1496,Den Haag Centraal,52.080506,4.323991,1,1,3,Den Haag
1496,1497,Haarlem,52.38711,4.636465,1,1,4,Haarlem
1497,1498,Maastricht,50.849811,5.705875,1,1,3,Maastricht
1498,1499,Rotterdam Centraal,51.925068244603146,4.468839168548584,1,3,2,Rotterdam
1499,1500,Utrecht Centraal,52.08758,5.111167,1,1,3,Utrecht
1500,1501,Vila Franca das Naves,40.724541,-7.258357,3,1,2,Vila Franca das Naves e Feital
1501,1502,Mangualde,40.58662,-7.760225,3,1,4,Mangualde
1502,1503,Luso Bucaco,40.390196,-8.385011,3,1,3,Mealhada
1503,1504,Pombal,39.91642,-8.630174,1,1,2,Pombal
1504,1505,Pampilhosa,40.338302,-8.431162,3,3,2,Mealhada
1505,1506,Viana do Castelo,41.695268,-8.831371,1,2,4,Viana do Castelo (Santa Maria Maior e Monserrate) e Meadela
1506,1507,Abrantes,39.440351,-8.194683,2,3,2,Abrantes
1507,1508,Figueira da Foz,40.14834,-8.848336,2,1,3,Figueira da Foz
1508,1509,Caldas da Rainha,39.4048977,-9.135404,2,1,4,Caldas da Rainha
1509,1510,Fatima,39.653566,-8.493556,2,2,2,Tomar
1510,1511,Vila Nova de Gaia,41.129667,-8.620188,2,2,3,Vila Nova de Gaia
1511,1512,Lisboa Santa Apolonia,38.71387,-9.122271,2,3,3,Lisboa
1512,1513,Porto Campanha,41.148823,-8.584932,3,3,3,Porto
1513,1514,Fundao,40.137963,-7.5010773,2,3,3,Fundão
1514,1515,Lagos,37.108265,-8.671143,3,3,2,Lagos
1515,1516,Portimao,37.13856,-8.53775,1,1,3,Portimão
1516,1517,Vila Real de San Antonio Guad,37.19979,-7.421566,1,2,2,Vila Real de Santo António
1517,1518,Beja,38.009623,-7.858997,2,3,4,Beja
1518,1519,Valenca,42.024705,-8.63928,2,2,2,"Valença, Cristelo Covo e Arão"
1519,1520,Leiria,39.756582,-8.827845,3,2,4,Leiria
1520,1521,Aveiro,40.643468,-8.640507,1,2,3,Aveiro
1521,1522,Braga,41.548155,-8.434446,2,1,4,Braga
1522,1523,Coimbra,40.210556,-8.434075,2,2,2,Coimbra
1523,1524,Castelo Branco,39.817868,-7.491744,3,1,3,Castelo Branco
1524,1525,Covilha,40.27708,-7.49605,3,3,3,Covilhã
1525,1526,Espinho,41.006171,-8.644496,3,2,2,Espinho
1526,1527,Entroncamento,39.461665,-8.473888,3,2,2,Entroncamento
1527,1528,Faro,37.019187,-7.940261,2,2,4,Faro
1528,1529,Guarda,40.552407,-7.239831,1,3,2,Guarda
1529,1530,Lisboa,38.71387,-9.122271,3,2,3,Lisboa
1530,1531,Lisboa Oriente,38.71387,-9.122271,2,3,2,Lisboa
1531,1532,Nine,41.454897,-8.544525,1,3,2,Vila Nova de Famalicão
1532,1533,Regua,41.158528,-7.783845,2,3,2,Peso da Régua
1533,1534,Torres Vedras,39.092739,-9.265706,3,2,2,Torres Vedras
1534,1535,Breteuil Place Laffitte,48.833036,1.008706,3,2,3,Mesnils-sur-Iton
1535,1536,Magnieres Lotissement,48.448154,6.567483,1,2,4,Magnières
1536,1537,Ecouche Centre,48.720581,-0.17261,3,3,3,Écouché-les-Vallées
1537,1538,Angers Universite,47.47779708325088,-0.5997419357299805,1,3,3,Angers
1538,1539,Rosiers-d'Egletons,45.376027,2.015813,2,3,4,Montaignac-sur-Doustre
1539,1540,Gages Relais,44.394109,2.703128,1,1,4,Montrozier
1540,1541,Laissac Greze Embranchement,44.375932,2.832959,2,2,2,Laissac-Sévérac l'Église
1541,1542,L'Isle-Jourdain Caserne,43.608379,1.074597,2,3,4,L'Isle-Jourdain
1542,1543,Capvern Mairie,43.095644,0.312411,3,1,3,Benqué-Molère
1543,1544,Issoire Lycee Deville,45.53244,3.267372,2,1,3,Issoire
1544,1545,Issoire Lycee Murat,45.555002,3.250454,1,2,4,Issoire
1545,1546,Le Breuil-sur-Couze Salle des Fetes,45.478163,3.29024,1,1,3,Nonette-Orsonnette
1546,1547,Alba Ruines Romaines,44.559007,4.587635,1,1,3,Alba-la-Romaine
1547,1548,Chamonix Aiguille du Midi,45.91993,6.8667152,1,2,4,Chamonix-Mont-Blanc
1548,1549,Acheres,48.966667,2.066667,2,1,4,Achères
1549,1550,St-Denis,48.933333,2.366667,1,3,4,Saint-Denis
1550,1551,La Croix-du-Prince,43.2857104,-0.3791261,2,2,4,Jurançon
1551,1552,Chanas,45.31881,4.818492,3,2,3,Chanas
1552,1553,Orly,48.75,2.4,3,3,2,Thiais
1553,1554,Vitrolles Aeroport Marseille-Provence TER,43.441734,5.237122,1,2,3,Vitrolles
1554,1555,St-Agil,48.033333,0.933333,3,2,4,Couëtron-au-Perche
1555,1556,Fontaines,46.416667,-0.816667,2,3,3,Doix-lès-Fontaines
1556,1557,Ferney Lycee,46.258577,6.11063,2,1,3,Ferney-Voltaire
1557,1558,Longemaison,47.083333,6.466667,3,3,2,Flangebouche
1558,1559,Aeroport Paris Orly,48.7294,2.3681,3,2,2,Orly
1559,1560,La Plaine-Stade de France,48.91839,2.36257,2,1,4,Saint-Denis
1560,1561,Evires,46.033333,6.233333,3,1,2,Fillière
1561,1562,Lamativie,44.95,2.033333,1,1,2,Sousceyrac-en-Quercy
1562,1563,Luitre,48.283333,-1.116667,3,3,3,Luitré-Dompierre
1563,1564,Lully,46.283333,6.416667,3,3,4,Lully
1564,1565,Anglefort,45.916667,5.8,1,1,4,Anglefort
1565,1566,St-Michel,48.853396,2.345474,3,1,2,Paris
1566,1567,Chenerailles,46.116667,2.166667,2,3,4,Saint-Dizier-la-Tour
1567,1568,Reterre,46.1,2.466667,3,1,3,Arfeuille-Châtain
1568,1569,Beyredes,42.956086,0.379218,3,3,3,Beyrède-Jumet-Camous
1569,1570,Sentaraille,43.008915,1.107817,1,3,3,Lorp-Sentaraille
1570,1571,Rossillon,45.833333,5.6,1,3,2,Rossillon
1571,1572,Neuilly-Porte Maillot,48.877983,2.284516,1,2,4,Paris
1572,1573,Sergy,46.25,6.0,2,1,2,Sergy
1573,1574,Cessy,46.316667,6.066667,1,1,3,Cessy
1574,1575,Le Gault-Soigny Mairie,48.816667,3.583333,1,1,3,Le Gault-Soigny
1575,1576,Charritte,43.4,-1.1,1,2,4,Arraute-Charritte
1576,1577,Arcomie,44.866667,3.233333,1,2,4,Les Monts-Verts
1577,1578,Gondecourt,50.55,2.983333,2,3,4,Gondecourt
1578,1579,Orly Ville,48.741815,2.40265,1,2,2,Orly
1579,1580,Le Grand-Bourg,48.641296,2.429029,2,2,2,Évry-Courcouronnes
1580,1581,Bourg-Lastic-Messeix,45.62749,2.56043,1,2,3,Messeix
1581,1582,Leaz,46.1,5.883333,2,2,3,Léaz
1582,1583,Stade-de-France-St-Denis,48.91779,2.35134,1,1,4,Saint-Denis
1583,1584,Naussac,44.516667,2.083333,2,2,4,Causse-et-Diège
1584,1585,Herrin,50.55,2.966667,2,2,2,Herrin
1585,1586,Noidans-le-Ferroux,47.566667,5.95,1,3,2,La Romaine
1586,1587,Eragny-Neuville,49.01824,2.09104,1,1,4,Éragny
1587,1588,Chanteloup-les-Vignes,48.97095,2.02771,3,3,3,Chanteloup-les-Vignes
1588,1589,Maurecourt,48.98712,2.05963,1,1,4,Andrésy
1589,1590,Valence Gare Routiere,44.92694,4.8925,3,1,3,Valence
1590,1591,Andresy,48.9747,2.04928,2,2,3,Andrésy
1591,1592,Val-d'Argenteuil,48.95042,2.23088,3,2,4,Argenteuil
1592,1593,Argenteuil,48.94686,2.25727,3,3,3,Argenteuil
1593,1594,Peronnas,46.183333,5.2,2,2,4,Péronnas
1594,1595,Bastia,42.702,9.44766,1,2,2,Bastia
1595,1596,Dompierre-du-Chemin,48.266667,-1.15,3,1,2,Luitré-Dompierre
1596,1597,Alba Pont des Sceautres,44.555372,4.598465,1,1,2,Alba-la-Romaine
1597,1598,Malesherbes,48.2934325,2.4012177,3,3,2,Le Malesherbois
1598,1599,Lapeyrouse (Ain),45.983333,4.966667,1,3,4,Lapeyrouse
1599,1600,Lempdes,45.766667,3.216667,2,2,4,Mur-sur-Allier
1600,1601,Le Mans Gare Autotrain,48.0,0.2,2,3,4,Le Mans
1601,1602,Les Yvris-Noisy-le-Grand,48.823182,2.579828,2,1,4,Noisy-le-Grand
1602,1603,La Seyne-sur-Mer,43.1,5.883333,3,1,4,La Seyne-sur-Mer
1603,1604,Grenoble Gare Routiere,45.191029,5.715422,2,1,2,Grenoble
1604,1605,Bagnoles-de-l'Orne Eglise,48.54979649877053,-0.4248404502868652,3,3,2,Bagnoles-de-l'Orne-Normandie
1605,1606,Mars-la-Tour,49.1,5.9,3,3,2,Rezonville-Vionville
1606,1607,St-Michel-Notre-Dame,48.85348,2.34545,1,1,4,Paris
1607,1608,Ste-Brigitte,48.166667,-3.133333,2,2,3,Bon Repos sur Blavet
1608,1609,Eyguians,44.35,5.783333,2,1,4,Garde-Colombe
1609,1610,Le Teil,44.5525285,4.685992,2,3,4,Le Teil
1610,1611,Les Masseries,44.47551,1.60573,3,2,2,Saint-Géry-Vers
1611,1612,Bondy,48.894208,2.4786,1,3,3,Bondy
1612,1613,Evry,48.633333,2.45,3,3,4,Évry-Courcouronnes
1613,1614,Le Teil TER,44.55,4.683333,1,2,4,Le Teil
1614,1615,St-Vidal,45.066667,3.783333,2,1,2,Saint-Vidal
1615,1616,Orly Aerogares,48.75,2.4,2,2,3,Thiais
1616,1617,Pont-de-Rungis-Aeroport-d'Orly,48.748163,2.372792,3,1,3,Thiais
1617,1618,Les Saules,48.7454924,2.417366,1,2,4,Orly
1618,1619,La Vancelle,48.283333,7.3,1,1,3,Neubois
1619,1620,Prunieres,44.55,6.333333,3,2,3,Prunières
1620,1621,Le Bras de Fer,48.623287,2.450625,1,3,2,Évry-Courcouronnes
1621,1622,Aeroport Paris Orly Ouest,48.75,2.4,3,1,2,Thiais
1622,1623,Aeroport Paris Orly Sud,48.729,2.3699,1,1,3,Orly
1623,1624,Villeneuve-Prairie,48.76408,2.433487,3,3,4,Choisy-le-Roi
1624,1625,Brunoy,48.699112,2.506422,1,3,2,Brunoy
1625,1626,Boussy-St-Antoine,48.680893,2.532726,2,3,3,Boussy-Saint-Antoine
1626,1627,Odratzheim,48.6,7.483333,1,3,3,Odratzheim
1627,1628,Scharrachbergheim,48.593754,7.491817,2,3,2,Scharrachbergheim-Irmstett
1628,1629,Kirchheim,48.609249,7.496367,1,1,3,Kirchheim
1629,1630,Choisy-le-Roi,48.763974,2.411102,3,2,4,Choisy-le-Roi
1630,1631,Marlenheim,48.621336,7.490959,3,2,3,Marlenheim
1631,1632,Recoubeau,44.654978,5.414886,3,1,2,Recoubeau-Jansac
1632,1633,Romanswiller,48.645556,7.407618,1,1,4,Romanswiller
1633,1634,Singrist,48.670219,7.386332,2,2,3,Sommerau
1634,1635,Masbaraud-Merignat,45.983333,1.75,2,3,3,Saint-Dizier-Masbaraud
1635,1636,Evry-Val-de-Seine,48.63442,2.45209,3,1,3,Évry-Courcouronnes
1636,1637,Evry-Courcouronnes,48.625507,2.428581,3,1,3,Évry-Courcouronnes
1637,1638,Irmstett,48.583333,7.483333,1,1,2,Scharrachbergheim-Irmstett
1638,1639,Sisteron,44.2,5.933333,2,2,4,Val-Buëch-Méouge
1639,1640,Laplace,48.807857,2.333761,3,2,3,Arcueil
1640,1641,Arcueil-Cachan,48.798616,2.328134,2,1,4,Arcueil
1641,1642,Parc-de-Sceaux,48.770228,2.310128,2,1,4,Sceaux
1642,1643,Mazeres-sur-Salat Centre,43.133333,0.966667,3,3,3,Mazères-sur-Salat
1643,1644,La Boisse,45.85,5.033333,3,3,2,La Boisse
1644,1645,Satolas,45.7,5.133333,1,2,3,Satolas-et-Bonce
1645,1646,Noisy-Le-Grand-Mont-d'Est,48.840776,2.546527,2,3,4,Noisy-le-Grand
1646,1647,Noisy-Champs,48.842771,2.579059,2,3,4,Noisy-le-Grand
1647,1648,Auber-RER-A,48.873137,2.329536,3,1,4,Paris
1648,1649,La Seyne-Six-Fours,43.116959,5.876966,1,3,4,La Seyne-sur-Mer
1649,1650,Champdeniers Centre,46.483333,-0.4,2,3,2,Germond-Rouvre
1650,1651,Acheres-Ville,48.97011,2.07739,3,2,3,Achères
1651,1652,Briey,49.25,5.933333,2,1,4,Val de Briey
1652,1653,Grainville-Ymauville,49.666667,0.416667,1,2,2,Grainville-Ymauville
1653,1654,Jacques-Monod-la-Demi-Lieue,49.5269596,0.1861468,3,3,4,Harfleur
1654,1655,Sigournais,46.7,-0.966667,2,3,2,Sigournais
1655,1656,Trilport,48.96013551,2.94953688,1,1,4,Trilport
1656,1657,Toulouse Roseraie,43.619518191706696,1.4693784713745115,3,1,2,Toulouse
1657,1658,Autevielle,43.383333,-0.966667,3,1,3,Autevielle-Saint-Martin-Bideren
1658,1659,Bologna Centrale,44.506141,11.343406,1,1,3,Bologna
1659,1660,Bologna Corticella,44.55204,11.353987,2,3,4,Bologna
1660,1661,Vicenza,45.541096,11.540774,2,1,3,Vicenza
1661,1662,Innsbruck,47.2854337,11.3087505,1,3,2,Innsbruck
1662,1663,Novara,45.451258,8.625104,3,3,2,Novara
1663,1664,Vercelli,45.330137,8.416501,3,1,4,Vercelli
1664,1665,Innsbruck Hbf,47.263277,11.401,3,3,2,Innsbruck
1665,1666,Nanc-les-St-Amour,46.4241620793668,5.358699560165405,2,1,2,Les Trois-Châteaux
1666,1667,Figueres-Vilafant,42.26478,2.943023,3,1,2,Figueres
1667,1668,Poznan,52.401996,16.910866,2,3,4,Poznań
1668,1669,Worgl,47.4918,12.060584,3,2,4,Stadt Wörgl
1669,1670,Jenbach,47.388451,11.778457,3,3,2,Marktgemeinde Jenbach
1670,1671,Smolensk,54.777369,32.027504,3,3,4,Смоленск
1671,1672,Minsk,53.868712,27.651025,1,1,3,Минск
1672,1673,Brest-Centralnyi,52.100529,23.680661,1,2,2,Брест
1673,1674,Warszawa,52.232855,20.9211119,1,2,2,Warszawa
1674,1675,Warszawa-Wschodnia,52.251544,21.052332,2,1,4,Warszawa
1675,1676,Warszawa-Centralna,52.228864,21.003233,3,3,4,Warszawa
1676,1677,Moskva Belorusskaya,55.777223,37.581826,3,2,2,Москва
1677,1678,Saarbrucken,49.24115221039208,6.990984678268433,3,1,2,Saarbrücken
